station_id,lat,lon,source,reports,country
SMWN2,36.194,-115.381,madis,subhourly,US
SMWT2,29.708,-95.392,madis,subhourly,US
SMXC1,33.147,-117.196,madis,subhourly,US
SMXC2,38.042,-108.132,madis,subhourly,US
SMYC,36.318,-115.584,madis,subhourly,US
SMYI1,45.15,-113.945,madis,subhourly,US
SMYI4,43.151,-93.169,madis,subhourly,US
SMYW2,39.376,-81.186,madis,subhourly,US
SN001,34.772,-106.763,madis,subhourly,US
SNBT2,31.218,-98.564,madis,subhourly,US
SNC,40.66,-111.515,madis,subhourly,US
SNCA2,61.348,-142.71,madis,subhourly,US
SNCC1,33.993,-119.716,madis,subhourly,US
SNCN6,42.253,-79.271,madis,subhourly,US
SND,40.368,-111.594,madis,subhourly,US
SNDA2,55.337,-160.502,madis,subhourly,US
SNDF1,30.07,-84.592,madis,subhourly,US
SNDM5,46.113,-92.994,madis,subhourly,US
SNDN5,32.58,-106.525,madis,subhourly,US
SNDP1,40.768,-77.617,madis,subhourly,US
SNDP5,28.212,-177.36,madis,subhourly,US
SNDT2,30.547,-98.544,madis,subhourly,US
SNEA2,58.142,-133.727,madis,subhourly,US
SNFEC,41.359,-111.904,madis,subhourly,US
SNFM6,33.529,-90.439,madis,subhourly,US
SNFW1,48.272,-121.888,madis,subhourly,US
SNGN8,46.467,-97.317,madis,subhourly,US
SNHW2,37.646,-81.928,madis,subhourly,US
SNI,41.2,-111.859,madis,subhourly,US
SNIA2,60.61,-154.32,madis,subhourly,US
SNIW4,42.495,-110.532,madis,subhourly,US
SNKC1,34.019,-117.73,madis,subhourly,US
SNKG1,33.529,-84.928,madis,subhourly,US
SNKWY,43.463,-110.763,madis,subhourly,US
SNLN5,35.23,-106.591,madis,subhourly,US
SNLO1,39.925,-81.435,madis,subhourly,US
SNLP1,41.349,-80.086,madis,subhourly,US
SNLW4,41.463,-106.281,madis,subhourly,US
SNM,40.374,-111.594,madis,subhourly,US
SNMP1,41.002,-77.131,madis,subhourly,US
SNNT1,35.161,-88.24,madis,subhourly,US
SNNW4,44.517,-104.436,madis,subhourly,US
SNO30,47.425,-121.414,madis,subhourly,US
SNO38,47.42,-121.428,madis,subhourly,US
SNOA2,60.295,-149.344,madis,subhourly,US
SNOW4,41.417,-109.036,madis,subhourly,US
SNPA2,57.158,-170.212,madis,subhourly,US
SNPC1,33.7,-117.533,madis,subhourly,US
SNPT2,29.322,-98.45,madis,subhourly,US
SNRC1,35.796,-120.883,madis,subhourly,US
SNRW2,38.808,-81.06,madis,subhourly,US
SNSI1,47.555,-115.824,madis,subhourly,US
SNSLP,48.255,-113.502,madis,subhourly,US
SNTA2,55.347,-160.466,madis,subhourly,US
SNV,40.615,-111.511,madis,subhourly,US
SNVN2,39.021,-114.09,madis,subhourly,US
SNWC1,40.46,-121.46,madis,subhourly,US
SNWM5,46.844,-92.462,madis,subhourly,US
SNWN7,35.268,-80.786,madis,subhourly,US
SNWO3,43.949,-119.54,madis,subhourly,US
SNWW1,47.985,-122.885,madis,subhourly,US
SNWW4,42.734,-108.845,madis,subhourly,US
SNX,41.039,-112.232,madis,subhourly,US
SNYM4,46.24,-85.943,madis,subhourly,US
SOAC1,39.425,-122.977,madis,subhourly,US
SOBSD,33.007,-117.276,madis,subhourly,US
SOCG1,33.773,-84.077,madis,subhourly,US
SODC2,39.56,-105.986,madis,subhourly,US
SOFC1,33.351,-117.525,madis,subhourly,US
SOGI4,42.041,-94.031,madis,subhourly,US
SOGM5,44.406,-92.931,madis,subhourly,US
SOGM7,36.617,-93.243,madis,subhourly,US
SOL,40.608,-111.604,madis,subhourly,US
SOLA2,60.455,-151.1,madis,subhourly,US
SOLAP,40.614,-111.602,madis,subhourly,US
SOLBS,40.619,-111.594,madis,subhourly,US
SOLHP,40.602,-111.614,madis,subhourly,US
SOLI1,46.167,-116.737,madis,subhourly,US
SOLMB,40.617,-111.603,madis,subhourly,US
SOLSM,40.601,-111.604,madis,subhourly,US
SOLT1,35.965,-84.179,madis,subhourly,US
SOLT2,30.106,-94.334,madis,subhourly,US
SOMC1,34.157,-117.681,madis,subhourly,US
SOMK2,37.053,-84.614,madis,subhourly,US
SOMP1,40.025,-79.096,madis,subhourly,US
SOMT1,35.259,-89.354,madis,subhourly,US
SOMT2,30.322,-96.526,madis,subhourly,US
SOPH1,18.993,-155.668,madis,subhourly,US
SOQC1,36.991,-121.955,madis,subhourly,US
SORC1,35.297,-120.636,madis,subhourly,US
SORI1,42.953,-111.359,madis,subhourly,US
SORI2,41.522,-88.193,madis,subhourly,US
SOSC2,39.015,-107.049,madis,subhourly,US
SOSK1,37.872,-101.358,madis,subhourly,US
SOSS2,45.108,-97.102,madis,subhourly,US
SOTN7,35.914,-82.067,madis,subhourly,US
SOUA2,55.833,-130.182,madis,subhourly,US
SOUC1,37.168,-118.571,madis,subhourly,US
SOUG1,33.63,-84.129,madis,subhourly,US
SOUI1,45.89,-115.99,madis,subhourly,US
SOUN3,43.214,-71.481,madis,subhourly,US
SOUT2,33.024,-98.644,madis,subhourly,US
SOXC2,38.926,-107.43,madis,subhourly,US
SPA ,34.917,-81.95,isd,hourly,US
SPAI1,42.018,-116.213,madis,subhourly,US
SPAI4,41.696,-94.375,madis,subhourly,US
SPAN7,36.46,-81.168,madis,subhourly,US
SPAO2,36.383,-95.048,madis,subhourly,US
SPAQ8,49.154,-109.916,madis,subhourly,US
SPAW2,38.801,-81.357,madis,subhourly,US
SPBM8,47.904,-113.439,madis,subhourly,US
SPBNV,39.529,-119.72,madis,subhourly,US
SPBW2,38.692,-79.542,madis,subhourly,US
SPC,40.641,-111.636,madis,subhourly,US
SPCA2,59.657,-135.268,madis,subhourly,US
SPCC1,38.666,-119.817,madis,subhourly,US
SPCM4,46.458,-85.627,madis,subhourly,US
SPCT2,30.659,-101.77,madis,subhourly,US
SPCW1,47.935,-118.935,madis,subhourly,US
SPCW4,42.512,-108.776,madis,subhourly,US
SPDC1,34.175,-117.985,madis,subhourly,US
SPDW1,46.251,-122.341,madis,subhourly,US
SPEM1,45.314,-70.242,madis,subhourly,US
SPEO2,36.278,-95.954,madis,subhourly,US
SPEW1,47.14,-122.091,madis,subhourly,US
SPFM5,44.203,-95.048,madis,subhourly,US
SPFW2,38.996,-80.298,madis,subhourly,US
SPGA2,60.819,-148.976,madis,subhourly,US
SPGG1,33.484,-83.958,madis,subhourly,US
SPGN1,40.629,-96.789,madis,subhourly,US
SPGN2,40.593,-114.205,madis,subhourly,US
SPGO1,39.284,-84.433,madis,subhourly,US
SPGW1,46.183,-117.542,madis,subhourly,US
SPGW2,39.091,-80.795,madis,subhourly,US
SPHL1,32.994,-93.396,madis,subhourly,US
SPIV2,37.181,-81.379,madis,subhourly,US
SPJC1,36.01,-118.391,madis,subhourly,US
SPJG1,33.803,-84.341,madis,subhourly,US
SPKC2,38.192,-108.217,madis,subhourly,US
SPKI4,41.778,-93.725,madis,subhourly,US
SPKN1,42.902,-100.362,madis,subhourly,US
SPKSC,34.418,-87.172,madis,subhourly,US
SPKU1,40.839,-110.005,madis,subhourly,US
SPKW2,38.427,-80.164,madis,subhourly,US
SPKW4,44.306,-106.982,madis,subhourly,US
SPLN1,41.204,-98.446,madis,subhourly,US
SPLS1,33.557,-80.441,madis,subhourly,US
SPLW1,46.095,-121.763,madis,subhourly,US
SPLW4,43.561,-107.395,madis,subhourly,US
SPMC2,38.533,-104.902,madis,subhourly,US
SPMD,39.27,-105.62,madis,subhourly,US
SPMI1,43.209,-111.688,madis,subhourly,US
SPMN2,40.438,-114.81,madis,subhourly,US
SPMNX,45.225,-92.804,madis,subhourly,US
SPMT2,36.202,-101.306,madis,subhourly,US
SPMU1,40.391,-109.353,madis,subhourly,US
SPMW1,46.18,-121.927,madis,subhourly,US
SPMW2,37.873,-81.298,madis,subhourly,US
SPNI3,39.28,-86.762,madis,subhourly,US
SPNN2,39.635,-119.705,madis,subhourly,US
SPNO1,41.109,-82.095,madis,subhourly,US
SPNT2,30.111,-95.436,madis,subhourly,US
SPNW2,37.433,-81.11,madis,subhourly,US
SPOC1,35.346,-120.649,madis,subhourly,US
SPOI4,43.128,-95.211,madis,subhourly,US
SPOM8,47.924,-113.525,madis,subhourly,US
SPONV,39.117,-119.845,madis,subhourly,US
SPOV2,37.962,-79.212,madis,subhourly,US
SPPSD,32.999,-116.789,madis,subhourly,US
SPRAZ,36.15,-109.52,madis,subhourly,US
SPRM8,46.78,-110.622,madis,subhourly,US
SPRNV,39.104,-119.897,madis,subhourly,US
SPRT2,36.361,-101.164,madis,subhourly,US
SPRV2,37.273,-80.544,madis,subhourly,US
SPSC2,37.699,-107.777,madis,subhourly,US
SPSM1,44.304,-70.54,madis,subhourly,US
SPSO3,45.755,-118.049,madis,subhourly,US
SPST1,36.513,-86.862,madis,subhourly,US
SPST2,33.481,-100.876,madis,subhourly,US
SPSV2,37.287,-80.075,madis,subhourly,US
SPSW1,45.99,-120.68,madis,subhourly,US
SPSW4,42.573,-108.843,madis,subhourly,US
SPTC2,39.409,-105.169,madis,subhourly,US
SPTG1,33.373,-82.139,madis,subhourly,US
SPTM5,44.325,-93.953,madis,subhourly,US
SPTP1,41.824,-79.736,madis,subhourly,US
SPTW1,46.261,-122.177,madis,subhourly,US
SPTW2,39.714,-79.66,madis,subhourly,US
SPVC2,39.188,-104.778,madis,subhourly,US
SPVCA,36.19,-118.8,madis,subhourly,US
SPVSD,33.093,-116.955,madis,subhourly,US
SPWC1,38.133,-120.367,madis,subhourly,US
SPWT1,36.457,-83.884,madis,subhourly,US
SPWW4,44.467,-107.034,madis,subhourly,US
SPYN6,42.581,-75.564,madis,subhourly,US
SPYT1,35.275,-89.887,madis,subhourly,US
SQAN3,43.706,-71.63,madis,subhourly,US
SQBC1,39.195,-120.229,madis,subhourly,US
SQCT2,31.182,-98.856,madis,subhourly,US
SQFC1,34.866,-120.294,madis,subhourly,US
SQFI1,44.771,-116.249,madis,subhourly,US
SQFO3,42.07,-123.012,madis,subhourly,US
SQGW2,39.028,-78.678,madis,subhourly,US
SQLW1,47.542,-121.836,madis,subhourly,US
SQPM8,47.179,-114.334,madis,subhourly,US
SQPW1,47.425,-121.414,madis,subhourly,US
SQSC1,35.368,-117.57,madis,subhourly,US
SQTSD,32.798,-116.779,madis,subhourly,US
SQUU1,38.497,-112.008,madis,subhourly,US
SQWC1,39.19,-120.266,madis,subhourly,US
SQWC2,39.681,-105.496,madis,subhourly,US
SRAC1,38.31,-119.6,madis,subhourly,US
SRAC2,39.511,-105.537,madis,subhourly,US
SRAM8,45.551,-109.388,madis,subhourly,US
SRAW4,41.455,-106.806,madis,subhourly,US
SRBC1,38.684,-121.272,madis,subhourly,US
SRBW1,46.372,-122.578,madis,subhourly,US
SRCI2,39.406,-88.896,madis,subhourly,US
SRCN4,40.639,-74.916,madis,subhourly,US
SRDI2,41.333,-88.85,madis,subhourly,US
SRDM2,39.507,-79.134,madis,subhourly,US
SRDM6,34.399,-89.787,madis,subhourly,US
SRDT2,28.865,-95.568,madis,subhourly,US
SRDW1,47.946,-120.247,madis,subhourly,US
SRES1,33.153,-79.363,madis,subhourly,US
SRFI1,45.1,-116.738,madis,subhourly,US
SRFM5,47.514,-96.342,madis,subhourly,US
SRFU1,38.858,-110.369,madis,subhourly,US
SRGA2,64.814,-147.629,madis,subhourly,US
SRGA4,35.657,-92.293,madis,subhourly,US
SRGC2,37.657,-106.649,madis,subhourly,US
SRGM8,47.302,-115.087,madis,subhourly,US
SRGN4,40.691,-74.937,madis,subhourly,US
SRGS1,34.012,-81.779,madis,subhourly,US
SRGV2,37.019,-82.406,madis,subhourly,US
SRHM5,46.794,-94.952,madis,subhourly,US
SRHSD,32.808,-116.508,madis,subhourly,US
SRIC1,33.979,-120.079,madis,subhourly,US
SRIW2,38.468,-80.421,madis,subhourly,US
SRJU1,39.375,-112.039,madis,subhourly,US
SRKA2,66.975,-160.449,madis,subhourly,US
SRKK2,38.247,-83.589,madis,subhourly,US
SRKU1,38.196,-112.147,madis,subhourly,US
SRMM5,47.822,-93.018,madis,subhourly,US
SRMT2,29.719,-99.549,madis,subhourly,US
SRNA2,60.532,-149.555,madis,subhourly,US
SRNC1,38.211,-120.464,madis,subhourly,US
SRNNV,39.257,-119.834,madis,subhourly,US
SRO ,29.883,-97.866,isd,hourly,US
SROC1,33.546,-115.47,madis,subhourly,US
SRON6,43.8,-73.7,madis,subhourly,US
SRP01,33.44,-111.95,madis,subhourly,US
SRP10,33.51,-111.69,madis,subhourly,US
SRP14,32.9,-111.79,madis,subhourly,US
SRP15,33.22,-111.78,madis,subhourly,US
SRP19,33.98,-111.71,madis,subhourly,US
SRP20,33.82,-111.63,madis,subhourly,US
SRP21,33.46,-111.94,madis,subhourly,US
SRP22,33.16,-111.49,madis,subhourly,US
SRP25,33.71,-112.32,madis,subhourly,US
SRP26,33.6,-111.71,madis,subhourly,US
SRP27,33.35,-111.45,madis,subhourly,US
SRP28,33.46,-112.29,madis,subhourly,US
SRP29,33.57,-112.11,madis,subhourly,US
SRP30,33.41,-111.53,madis,subhourly,US
SRP31,33.25,-111.64,madis,subhourly,US
SRP32,33.42,-112.15,madis,subhourly,US
SRP33,33.22,-111.88,madis,subhourly,US
SRP34,33.49,-112.21,madis,subhourly,US
SRP35,33.43,-111.8,madis,subhourly,US
SRP36,33.47,-111.74,madis,subhourly,US
SRP37,33.36,-111.83,madis,subhourly,US
SRP38,33.56,-111.54,madis,subhourly,US
SRP39,33.38,-112.86,madis,subhourly,US
SRP40,33.39,-111.92,madis,subhourly,US
SRP41,33.51,-112,madis,subhourly,US
SRP42,32.92,-111.51,madis,subhourly,US
SRP43,33.55,-111.44,madis,subhourly,US
SRP44,33.67,-111.16,madis,subhourly,US
SRP45,33.59,-111.34,madis,subhourly,US
SRP50,33.83,-109.97,madis,subhourly,US
SRPA2,60.804,-149.185,madis,subhourly,US
SRPN1,41.101,-97.31,madis,subhourly,US
SRRI4,43.05,-92.93,madis,subhourly,US
SRRL,39.74,-105.18,madis,subhourly,US
SRRT2,28.849,-97.737,madis,subhourly,US
SRSI1,43.484,-114.827,madis,subhourly,US
SRSI4,42.98,-93.1,madis,subhourly,US
SRSK2,37.375,-82.784,madis,subhourly,US
SRSNV,39.227,-119.81,madis,subhourly,US
SRSO1,40.869,-82.659,madis,subhourly,US
SRSO3,43.344,-122.737,madis,subhourly,US
SRSS1,33.211,-81.591,madis,subhourly,US
SRST2,29.67,-94.05,madis,subhourly,US
SRSW4,41.112,-107.171,madis,subhourly,US
SRTA2,65.852,-164.708,madis,subhourly,US
SRTC1,36.348,-120.6,madis,subhourly,US
SRTN7,35.276,-80.826,madis,subhourly,US
SRUC1,33.518,-117.229,madis,subhourly,US
SRVA2,61.648,-156.408,madis,subhourly,US
SRVI4,43.355,-92.553,madis,subhourly,US
SRVV2,36.705,-79.935,madis,subhourly,US
SRWA2,67.46,-159.84,madis,subhourly,US
SRWG1,30.974,-81.726,madis,subhourly,US
SRWT2,29.939,-98.008,madis,subhourly,US
SRWW4,44.804,-106.926,madis,subhourly,US
SRXC1,34.194,-118.213,madis,subhourly,US
SRXU1,38.858,-110.369,madis,subhourly,US
SRYA2,59.587,-139.492,madis,subhourly,US
SRYM8,48.74,-113.432,madis,subhourly,US
SRZNV,39.053,-118.794,madis,subhourly,US
SSAI4,43.375,-92.917,madis,subhourly,US
SSAS2,43.53,-96.72,madis,subhourly,US
SSBO2,35.164,-95.104,madis,subhourly,US
SSBT2,31.214,-98.72,madis,subhourly,US
SSCA4,36.244,-94.239,madis,subhourly,US
SSCN1,42.486,-96.413,madis,subhourly,US
SSCN2,41.737,-115.472,madis,subhourly,US
SSCN5,36.862,-106.225,madis,subhourly,US
SSCT2,29.516,-98.431,madis,subhourly,US
SSEA3,33.197,-109.383,madis,subhourly,US
SSFI4,40.995,-93.476,madis,subhourly,US
SSFW1,48.095,-121.975,madis,subhourly,US
SSHOR,44.3,-121.57,madis,subhourly,US
SSIA2,67.995,-160.396,madis,subhourly,US
SSKW4,41.268,-106.948,madis,subhourly,US
SSLN2,39.466,-119.728,madis,subhourly,US
SSMM8,47.562,-107.529,madis,subhourly,US
SSMN2,41.34,-116.98,madis,subhourly,US
SSMT2,29.573,-99.403,madis,subhourly,US
SSNA1,31.112,-86.099,madis,subhourly,US
SSNX,61.464,-150.747,madis,subhourly,US
SSOSD,33.075,-116.814,madis,subhourly,US
SSPC2,40.49,-106.847,madis,subhourly,US
SSPN7,35.583,-81.636,madis,subhourly,US
SSPNV,39.274,-118.349,madis,subhourly,US
SSPW1,45.949,-120.665,madis,subhourly,US
SSQM2,39.607,-76.16,madis,subhourly,US
SSR ,58.167,-135.25,isd,hourly,US
SSRC1,34.505,-119.136,madis,subhourly,US
SSRT2,31.28,-93.839,madis,subhourly,US
SSSO3,42.786,-121.977,madis,subhourly,US
SSSSD,33.344,-116.732,madis,subhourly,US
SSTI4,41.504,-94.318,madis,subhourly,US
SSTK2,36.617,-84.6,madis,subhourly,US
SSTM7,39.401,-94.727,madis,subhourly,US
SSVC1,34.214,-117.499,madis,subhourly,US
SSVN2,37.647,-115.798,madis,subhourly,US
SSVT2,30.223,-97.827,madis,subhourly,US
SSWN2,35.4,-115.03,madis,subhourly,US
SSWT2,33.059,-102.415,madis,subhourly,US
SSYC1,41.622,-120.161,madis,subhourly,US
STAC1,33.744,-117.867,madis,subhourly,US
STAK1,38.813,-94.675,madis,subhourly,US
STAM8,48.909,-114.863,madis,subhourly,US
STAN2,38.967,-119.948,madis,subhourly,US
STAN7,35.81,-80.881,madis,subhourly,US
STAP1,40.985,-76.029,madis,subhourly,US
STB48,47.738,-121.107,madis,subhourly,US
STB49,47.738,-121.107,madis,subhourly,US
STBA3,31.613,-111.041,madis,subhourly,US
STBC1,37.307,-121.995,madis,subhourly,US
STBC3,41.961,-72.711,madis,subhourly,US
STBI4,42.41,-93.06,madis,subhourly,US
STBM3,42.083,-72.058,madis,subhourly,US
STBM8,46.261,-108.099,madis,subhourly,US
STBW2,38.144,-80.344,madis,subhourly,US
STCA3,35.344,-114.196,madis,subhourly,US
STCC1,33.426,-116.087,madis,subhourly,US
STCG1,33.826,-84.165,madis,subhourly,US
STCI4,42.15,-93.62,madis,subhourly,US
STCM8,46.927,-110.902,madis,subhourly,US
STCN7,35.761,-75.871,madis,subhourly,US
STCV2,37.99,-79.123,madis,subhourly,US
STDC3,41.037,-73.535,madis,subhourly,US
STDCA,40.72,-122.43,madis,subhourly,US
STDF1,25.509,-80.498,madis,subhourly,US
STDM4,47.18,-87.22,madis,subhourly,US
STDP1,41.13,-75.626,madis,subhourly,US
STDU1,40.165,-111.207,madis,subhourly,US
STEC1,32.84,-117.025,madis,subhourly,US
STET2,31.848,-96.29,madis,subhourly,US
STEW3,43.183,-90.858,madis,subhourly,US
STFC1,34.126,-117.947,madis,subhourly,US
STFC3,41.124,-73.548,madis,subhourly,US
STFM7,39.356,-91.834,madis,subhourly,US
STFN4,39.667,-74.32,madis,subhourly,US
STFO3,42.189,-120.847,madis,subhourly,US
STFT2,32.931,-99.642,madis,subhourly,US
STG,39.583,-122.533,madis,subhourly,US
STGM5,43.935,-94.071,madis,subhourly,US
STGM7,39.117,-90.692,madis,subhourly,US
STGM8,47.307,-115.108,madis,subhourly,US
STGN2,41.408,-115.447,madis,subhourly,US
STGN6,41.235,-74.238,madis,subhourly,US
STGN7,35.336,-83.692,madis,subhourly,US
STGNV,39.381,-119.32,madis,subhourly,US
STGO1,40.966,-81.851,madis,subhourly,US
STHC1,38.492,-122.533,madis,subhourly,US
STHC2,39.918,-106.916,madis,subhourly,US
STHG1,33.679,-84.358,madis,subhourly,US
STHT1,36.513,-87.951,madis,subhourly,US
STIP1,41.696,-75.469,madis,subhourly,US
STIT2,31.022,-97.533,madis,subhourly,US
STJC1,34.607,-120.306,madis,subhourly,US
STJW2,39.004,-80.473,madis,subhourly,US
STKA2,56.708,-132.13,madis,subhourly,US
STKA4,35.869,-94.298,madis,subhourly,US
STKM8,46.853,-113.377,madis,subhourly,US
STKN4,40.403,-74.979,madis,subhourly,US
STKO1,40.118,-81.496,madis,subhourly,US
STKV2,38.355,-79.15,madis,subhourly,US
STKW2,39.576,-80.944,madis,subhourly,US
STLK2,37.768,-83.489,madis,subhourly,US
STLN5,36.732,-106.866,madis,subhourly,US
STLN7,35.943,-81.842,madis,subhourly,US
STLT1,36.018,-86.121,madis,subhourly,US
STLU1,40.885,-110.828,madis,subhourly,US
STLV2,36.75,-82.883,madis,subhourly,US
STM,40.45,-106.73,madis,subhourly,US
STMCA,35.38,-120.19,madis,subhourly,US
STMI1,43.861,-114.209,madis,subhourly,US
STMN2,41.517,-115.391,madis,subhourly,US
STMN7,35.342,-84.029,madis,subhourly,US
STMQR,48.739,-113.429,madis,subhourly,US
STMV2,37.93,-79.164,madis,subhourly,US
STNA2,61.064,-153.896,madis,subhourly,US
STNF1,29.693,-81.445,madis,subhourly,US
STNG1,30.704,-83.033,madis,subhourly,US
STNI1,44.169,-114.926,madis,subhourly,US
STNK2,36.767,-83.923,madis,subhourly,US
STNW3,44.952,-90.937,madis,subhourly,US
STO,40.465,-112.365,madis,subhourly,US
STOC2,39.587,-107.404,madis,subhourly,US
STOM4,45.901,-86.931,madis,subhourly,US
STOM5,47.693,-91.759,madis,subhourly,US
STORM,40.455,-106.744,madis,subhourly,US
STPC1,39.471,-120.103,madis,subhourly,US
STPC2,37.476,-107.633,madis,subhourly,US
STPP1,40.524,-79.969,madis,subhourly,US
STPV2,36.968,-80.094,madis,subhourly,US
STQC1,36.163,-118.707,madis,subhourly,US
STQK2,37.988,-83.619,madis,subhourly,US
STRG1,31.257,-81.611,madis,subhourly,US
STRI4,42.252,-93.997,madis,subhourly,US
STRK2,36.627,-84.533,madis,subhourly,US
STRN6,43.891,-75.036,madis,subhourly,US
STRO3,44.264,-119.022,madis,subhourly,US
STRV2,37.191,-81.526,madis,subhourly,US
STRW1,48.347,-120.72,madis,subhourly,US
STRW2,38.307,-82.233,madis,subhourly,US
STS40,47.746,-121.093,madis,subhourly,US
STS48,47.741,-121.117,madis,subhourly,US
STS52,47.734,-121.108,madis,subhourly,US
STS54,47.732,-121.085,madis,subhourly,US
STSN5,31.855,-106.643,madis,subhourly,US
STST2,33.445,-101.19,madis,subhourly,US
STSV2,38.944,-78.355,madis,subhourly,US
STTM7,38.421,-92.208,madis,subhourly,US
STTM8,46.995,-113.927,madis,subhourly,US
STTN1,40.141,-101.23,madis,subhourly,US
STTQ2,57.901,-131.154,madis,subhourly,US
STUA2,64.718,-146.502,madis,subhourly,US
STUC1,38.346,-120.23,madis,subhourly,US
STUT2,30.007,-95.512,madis,subhourly,US
STVA4,35.466,-93.041,madis,subhourly,US
STVH1,21.421,-158.135,madis,subhourly,US
STVK2,37.563,-82.641,madis,subhourly,US
STVM8,46.514,-114.091,madis,subhourly,US
STVP1,41.407,-78.019,madis,subhourly,US
STVSD,33.069,-116.762,madis,subhourly,US
STVV2,36.888,-81.771,madis,subhourly,US
STWA2,60.547,-149.535,madis,subhourly,US
STWG1,33.941,-84.108,madis,subhourly,US
STWK2,38.091,-83.907,madis,subhourly,US
STWO3,42.126,-120.836,madis,subhourly,US
STWT1,36.186,-85.904,madis,subhourly,US
STXC1,36.926,-118.573,madis,subhourly,US
STXW3,45.397,-92.591,madis,subhourly,US
STYP1,41.411,-78.503,madis,subhourly,US
STYW2,38.424,-80.164,madis,subhourly,US
STZI1,48.374,-116.639,madis,subhourly,US
SU,34.291,-118.798,madis,subhourly,US
SUAM8,45.821,-113.954,madis,subhourly,US
SUBT2,33.333,-95.395,madis,subhourly,US
SUCM5,46.931,-91.858,madis,subhourly,US
SUCW4,44.722,-107.4,madis,subhourly,US
SUDA2,63.104,-147.516,madis,subhourly,US
SUFA3,33.863,-111.469,madis,subhourly,US
SUFN6,41.141,-74.116,madis,subhourly,US
SUFS2,43.735,-96.622,madis,subhourly,US
SUG,43.897,-111.738,madis,subhourly,US
SUGA2,61.081,-146.299,madis,subhourly,US
SUGV2,37.239,-80.042,madis,subhourly,US
SULC1,34.41,-119.204,madis,subhourly,US
SULF1,28.089,-82.409,madis,subhourly,US
SULI3,39.075,-87.353,madis,subhourly,US
SULM7,38.238,-91.198,madis,subhourly,US
SUM,43.396,-113.022,madis,subhourly,US
SUMA2,60.632,-149.542,madis,subhourly,US
SUMAM,39.151,-120.248,madis,subhourly,US
SUMC2,39.718,-106.158,madis,subhourly,US
SUMM8,48.318,-113.353,madis,subhourly,US
SUMQ2,59.654,-135.144,madis,subhourly,US
SUMW2,38.215,-80.888,madis,subhourly,US
SUN64,46.914,-121.644,madis,subhourly,US
SUN69,46.919,-121.652,madis,subhourly,US
SUNM5,45.544,-92.859,madis,subhourly,US
SUNN7,34.004,-77.998,madis,subhourly,US
SUNS2,43.869,-103.582,madis,subhourly,US
SUNUT,40.48,-111.837,madis,subhourly,US
SUNV1,43.091,-73.124,madis,subhourly,US
SUNV2,38.19,-79.812,madis,subhourly,US
SUPT2,29.28,-98.053,madis,subhourly,US
SUPW2,37.798,-80.478,madis,subhourly,US
SUPW3,46.576,-91.889,madis,subhourly,US
SURA2,62.829,-148.552,madis,subhourly,US
SURC2,40.511,-108.934,madis,subhourly,US
SURF1,30.021,-84.986,madis,subhourly,US
SURU1,37.597,-112.929,madis,subhourly,US
SUSDX,44.443,-98.956,madis,subhourly,US
SUSN7,35.323,-80.901,madis,subhourly,US
SUSW2,38.662,-80.71,madis,subhourly,US
SUTO1,40.669,-80.886,madis,subhourly,US
SUTV1,44.612,-72.047,madis,subhourly,US
SUUA2,60.617,-149.531,madis,subhourly,US
SUUC1,38.505,-122.464,madis,subhourly,US
SUUO1,40.247,-82.866,madis,subhourly,US
SUVA2,62.133,-150.042,madis,subhourly,US
SUWC1,36.075,-118.918,madis,subhourly,US
SUWF1,29.339,-83.087,madis,subhourly,US
SUZC1,34.095,-118.657,madis,subhourly,US
SV,34.276,-118.684,madis,subhourly,US
SVAB2,51.9,-139.7,madis,subhourly,US
SVAX3,50.5,-168.3,madis,subhourly,US
SVB,43.661,-114.403,madis,subhourly,US
SVB1H,43.661,-114.403,madis,subhourly,US
SVBG2,53.1,-152.2,madis,subhourly,US
SVBN6,43.194,-75.731,madis,subhourly,US
SVBO3,49.9,168.3,madis,subhourly,US
SVBT2,29.235,-98.402,madis,subhourly,US
SVCA2,61.139,-149.786,madis,subhourly,US
SVCC8,49.6,175.1,madis,subhourly,US
SVCE9,51.9,170,madis,subhourly,US
SVCO3,42.956,-121.181,madis,subhourly,US
SVCSD,32.913,-116.951,madis,subhourly,US
SVCT2,30.634,-100.373,madis,subhourly,US
SVDC1,34.152,-119.218,madis,subhourly,US
SVDG1,32.081,-81.081,madis,subhourly,US
SVE ,40.383,-120.567,isd,hourly,US
SVFI1,46.512,-114.686,madis,subhourly,US
SVFO3,42.859,-123.378,madis,subhourly,US
SVGM2,39.138,-76.829,madis,subhourly,US
SVHA4,35.97,-92.746,madis,subhourly,US
SVLN5,34.356,-106.886,madis,subhourly,US
SVLSD,32.721,-116.702,madis,subhourly,US
SVLT1,36.628,-81.939,madis,subhourly,US
SVMO3,42.698,-122.142,madis,subhourly,US
SVNM4,42.4,-86.29,madis,subhourly,US
SVNS1,32.1,-81.083,madis,subhourly,US
SVNW1,47.746,-121.093,madis,subhourly,US
SVNW3,44.541,-89.544,madis,subhourly,US
SVPC1,37.303,-122.092,madis,subhourly,US
SVPC2,40.619,-105.359,madis,subhourly,US
SVPI1,46.466,-114.633,madis,subhourly,US
SVPL1,32.5,-93.75,madis,subhourly,US
SVPN2,39.156,-119.882,madis,subhourly,US
SVPW2,39.537,-80.414,madis,subhourly,US
SVPW3,44.858,-92.239,madis,subhourly,US
SVRA2,59.975,-152.671,madis,subhourly,US
SVRK1,38.87,-100.963,madis,subhourly,US
SVRM7,39.639,-91.25,madis,subhourly,US
SVT,43.844,-114.718,madis,subhourly,US
SVTC1,34.593,-120.141,madis,subhourly,US
SVTM7,39.634,-91.248,madis,subhourly,US
SVVC1,34.243,-118.884,madis,subhourly,US
SVWM,46.047,-110.653,madis,subhourly,US
SVWM8,46.047,-110.653,madis,subhourly,US
SVWX,27.29,-80.254,madis,subhourly,US
SVYM3,42.567,-73.003,madis,subhourly,US
SWAC1,34.479,-118.881,madis,subhourly,US
SWAG1,34.096,-84.08,madis,subhourly,US
SWAN2,38.847,-114.373,madis,subhourly,US
SWAN3,42.871,-72.329,madis,subhourly,US
SWBA3,34.549,-113.058,madis,subhourly,US
SWBC1,41.301,-123.13,madis,subhourly,US
SWBN4,39.741,-75.259,madis,subhourly,US
SWCN7,35.545,-82.513,madis,subhourly,US
SWCW1,46.164,-122.184,madis,subhourly,US
SWDO2,35.814,-97.478,madis,subhourly,US
SWDP1,40.419,-79.026,madis,subhourly,US
SWEF1,25.884,-80.556,madis,subhourly,US
SWEG1,34.032,-84.089,madis,subhourly,US
SWET1,35.592,-84.464,madis,subhourly,US
SWEW4,42.49,-107.133,madis,subhourly,US
SWH,41.584,-111.976,madis,subhourly,US
SWHC1,34.444,-119.69,madis,subhourly,US
SWI,41.202,-111.864,madis,subhourly,US
SWIC1,39.541,-122.389,madis,subhourly,US
SWKA2,66.607,-159.091,madis,subhourly,US
SWLC1,32.908,-114.474,madis,subhourly,US
SWLM8,47.92,-113.839,madis,subhourly,US
SWMC3,41.37,-73.059,madis,subhourly,US
SWNA2,60.727,-150.876,madis,subhourly,US
SWNA4,34.164,-91.679,madis,subhourly,US
SWNC1,40.445,-121.104,madis,subhourly,US
SWNF1,29.373,-83.045,madis,subhourly,US
SWNI4,41.489,-93.278,madis,subhourly,US
SWNM5,47.25,-92.811,madis,subhourly,US
SWNM6,33.861,-90.277,madis,subhourly,US
SWNO3,42.413,-121.68,madis,subhourly,US
SWOG1,32.44,-82.382,madis,subhourly,US
SWPI1,43.626,-113.969,madis,subhourly,US
SWPM4,46.501,-84.373,madis,subhourly,US
SWRN1,40.903,-97.111,madis,subhourly,US
SWRN6,43.897,-75.051,madis,subhourly,US
SWRSD,32.832,-116.628,madis,subhourly,US
SWSO1,39.758,-80.961,madis,subhourly,US
SWSW1,48.571,-120.783,madis,subhourly,US
SWTN1,41.037,-98.993,madis,subhourly,US
SWTO2,35.422,-99.969,madis,subhourly,US
SWTZ1,48.367,-116.645,madis,subhourly,US
SWTZ2,48.379,-116.634,madis,subhourly,US
SWW ,32.466,-100.466,isd,hourly,US
SWWNV,38.514,-119.213,madis,subhourly,US
SWYW1,48.522,-122.224,madis,subhourly,US
SXCI4,42.524,-96.48,madis,subhourly,US
SXCT2,30.498,-98.148,madis,subhourly,US
SXDC1,34.184,-118.02,madis,subhourly,US
SXFS2,43.567,-96.711,madis,subhourly,US
SXHW3,46.563,-90.44,madis,subhourly,US
SXNK2,36.634,-84.112,madis,subhourly,US
SXOE,54.6,-150.9,madis,subhourly,US
SXRA2,60.478,-151.079,madis,subhourly,US
SXTK2,36.634,-84.114,madis,subhourly,US
SXXW4,43.697,-106.306,madis,subhourly,US
SYAC1,34.606,-120.07,madis,subhourly,US
SYAS2,42.89,-97.39,madis,subhourly,US
SYAV2,38.486,-78.331,madis,subhourly,US
SYCA3,33.694,-111.541,madis,subhourly,US
SYCC1,34.583,-119.076,madis,subhourly,US
SYCO2,36.335,-94.641,madis,subhourly,US
SYCSD,32.914,-117.03,madis,subhourly,US
SYDO2,34.638,-98.998,madis,subhourly,US
SYDP1,41.048,-77.61,madis,subhourly,US
SYGA4,35.95,-92.111,madis,subhourly,US
SYLC1,33.53,-117.285,madis,subhourly,US
SYLW4,44.478,-110.157,madis,subhourly,US
SYNO3,44.718,-122.692,madis,subhourly,US
SYOT2,33.758,-99.151,madis,subhourly,US
SYRK1,37.966,-101.756,madis,subhourly,US
SYRSD,33.132,-116.686,madis,subhourly,US
SYRV2,36.967,-82.4,madis,subhourly,US
SYRW4,44.463,-110.137,madis,subhourly,US
SYSC1,33.109,-116.673,madis,subhourly,US
SYST2,32.716,-100.862,madis,subhourly,US
SYTC1,34.527,-119.979,madis,subhourly,US
SYUC1,34.281,-119.14,madis,subhourly,US
SYVH,54.4,-164.9,madis,subhourly,US
SYVN7,35.373,-83.241,madis,subhourly,US
SYWC1,39.367,-122.573,madis,subhourly,US
SYWW3,45.2,-87.12,madis,subhourly,US
SZCC1,37.139,-122.203,madis,subhourly,US
SZCT2,31.109,-98.713,madis,subhourly,US
SZRP1,41.599,-78.172,madis,subhourly,US
SZSJ,51.6,-145.1,madis,subhourly,US
T130T,47.726,-122.324,madis,subhourly,US
T144T,47.475,-122.27,madis,subhourly,US
T167T,47.353,-122.245,madis,subhourly,US
T195T,47.77,-122.191,madis,subhourly,US
T2195,47.639,-117.362,madis,subhourly,US
T2TAO,36.577,-105.455,madis,subhourly,US
T33KX,56.814,-132.952,madis,subhourly,US
T35BX,36.916,-96.512,madis,subhourly,US
T42BX,37.03,-91.092,madis,subhourly,US
T45BX,37.016,-88.646,madis,subhourly,US
T47AX,36.988,-87.105,madis,subhourly,US
T50AX,37.02,-84.838,madis,subhourly,US
T5526,47.916,-122.207,madis,subhourly,US
T57AX,36.998,-79.254,madis,subhourly,US
T59AX,36.972,-77.554,madis,subhourly,US
T5SR2,47.98,-122.188,madis,subhourly,US
T60AX,37.14,-76.735,madis,subhourly,US
T7TAO,36.575,-105.453,madis,subhourly,US
T904I,47.438,-117.788,madis,subhourly,US
TAB,43.319,-112.692,madis,subhourly,US
TABC1,35.656,-120.924,madis,subhourly,US
TABN5,36.582,-105.456,madis,subhourly,US
TABRN,47.304,-122.233,madis,subhourly,US
TACAL,47.27,-122.38,madis,subhourly,US
TACIN,47.3,-122.41,madis,subhourly,US
TACLS,47.186,-122.452,madis,subhourly,US
TACM5,47.389,-93.381,madis,subhourly,US
TACN2,41.229,-116.029,madis,subhourly,US
TACN5,36.408,-105.331,madis,subhourly,US
TADC1,39.338,-120.273,madis,subhourly,US
TADU1,40.3,-110.602,madis,subhourly,US
TAENE,48.661,-119.198,madis,subhourly,US
TAFN2,39.374,-114.529,madis,subhourly,US
TAGA2,66.181,-158.66,madis,subhourly,US
TAHA2,67.55,-163.567,madis,subhourly,US
TAKU1,39.741,-113.983,madis,subhourly,US
TALO2,35.923,-94.923,madis,subhourly,US
TALPE,47.427,-121.418,madis,subhourly,US
TALPO,46.436,-117.35,madis,subhourly,US
TAMI4,41.954,-92.581,madis,subhourly,US
TAMM5,48.426,-96.628,madis,subhourly,US
TAMP1,41.423,-77.813,madis,subhourly,US
TANA2,60.908,-142.901,madis,subhourly,US
TANC1,34.207,-117.761,madis,subhourly,US
TAPC1,35.133,-118.438,madis,subhourly,US
TAPC2,38.909,-106.603,madis,subhourly,US
TAPM4,46.575,-85.269,madis,subhourly,US
TAQT2,27.812,-97.39,madis,subhourly,US
TARC2,37.424,-103.92,madis,subhourly,US
TARO3,45.613,-121.943,madis,subhourly,US
TASC1,37.787,-121.875,madis,subhourly,US
TAST2,33.207,-101.78,madis,subhourly,US
TATA3,32.658,-111.861,madis,subhourly,US
TATC1,41.986,-120.716,madis,subhourly,US
TATT1,36.022,-89.171,madis,subhourly,US
TAVON,48.446,-122.432,madis,subhourly,US
TAWA1,30.643,-87.892,madis,subhourly,US
TAWM4,44.255,-83.445,madis,subhourly,US
TAWW3,45.594,-89.723,madis,subhourly,US
TAYC1,40.079,-120.836,madis,subhourly,US
TAYM7,39.897,-91.58,madis,subhourly,US
TAYN7,35.912,-81.137,madis,subhourly,US
TAYP1,40.682,-79.551,madis,subhourly,US
TBAGR,48.964,-122.485,madis,subhourly,US
TBAT2,30.877,-94.311,madis,subhourly,US
TBELL,45.569,-122.203,madis,subhourly,US
TBELO,46.5,-119.612,madis,subhourly,US
TBFA2,61.439,-149.395,madis,subhourly,US
TBFC1,34.206,-117.761,madis,subhourly,US
TBFF1,28.053,-82.711,madis,subhourly,US
TBLAI,49,-122.735,madis,subhourly,US
TBLEW,47.335,-120.577,madis,subhourly,US
TBLM6,30.459,-89.346,madis,subhourly,US
TBLT2,30.795,-94.18,madis,subhourly,US
TBLUE,47.573,-119.434,madis,subhourly,US
TBPT2,33.798,-99.836,madis,subhourly,US
TBRA3,36.028,-114.323,madis,subhourly,US
TBRC1,41.628,-121.298,madis,subhourly,US
TBRT2,31.382,-100.538,madis,subhourly,US
TBRV2,37.964,-78.947,madis,subhourly,US
TBSU1,37.829,-112.117,madis,subhourly,US
TBTC1,39.194,-120.378,madis,subhourly,US
TBULL,47.182,-121.031,madis,subhourly,US
TBURN,48.177,-124.215,madis,subhourly,US
TBYP1,41.085,-75.606,madis,subhourly,US
TCAC1,40.786,-122.804,madis,subhourly,US
TCAMP,47.14,-123.892,madis,subhourly,US
TCAND,47.034,-123.097,madis,subhourly,US
TCASH,47.527,-120.484,madis,subhourly,US
TCBC1,34.49,-119.798,madis,subhourly,US
TCBM2,39.213,-76.245,madis,subhourly,US
TCCG1,34.765,-84.074,madis,subhourly,US
TCCU1,39.744,-113.889,madis,subhourly,US
TCFI1,43.94,-115.912,madis,subhourly,US
TCFO3,44.111,-122.577,madis,subhourly,US
TCFW1,48.49,-117.436,madis,subhourly,US
TCHC2,37.353,-105.232,madis,subhourly,US
TCHEL,47.873,-119.92,madis,subhourly,US
TCKC1,39.854,-122.61,madis,subhourly,US
TCKU1,40.739,-109.673,madis,subhourly,US
TCLAY,48.028,-117.598,madis,subhourly,US
TCLC1,34.474,-118.762,madis,subhourly,US
TCLG1,34.89,-83.531,madis,subhourly,US
TCMO3,44.144,-121.641,madis,subhourly,US
TCNC1,34.326,-118.719,madis,subhourly,US
TCNI3,40.779,-86.758,madis,subhourly,US
TCNSD,32.791,-117.184,madis,subhourly,US
TCNW1,47.267,-122.413,madis,subhourly,US
TCOA2,63.816,-145.879,madis,subhourly,US
TCOLX,64.873,-147.862,madis,subhourly,US
TCOSM,46.934,-123.728,madis,subhourly,US
TCOUL,47.972,-119.197,madis,subhourly,US
TCPA1,33.253,-87.449,madis,subhourly,US
TCPO1,39.878,-82.901,madis,subhourly,US
TCRA3,35.78,-113.796,madis,subhourly,US
TCRC1,39.833,-122.519,madis,subhourly,US
TCSW2,39.286,-80.546,madis,subhourly,US
TCTC1,34.521,-119.909,madis,subhourly,US
TCTM8,45.157,-109.361,madis,subhourly,US
TCTO1,39.217,-84.694,madis,subhourly,US
TCUN2,41.044,-115.095,madis,subhourly,US
TCURT,47.393,-121.473,madis,subhourly,US
TCYNV,39.569,-119.526,madis,subhourly,US
TDAW1,46.297,-117.951,madis,subhourly,US
TDCT2,30.581,-97.186,madis,subhourly,US
TDDT2,32.147,-96.102,madis,subhourly,US
TDELA,46.496,-117.972,madis,subhourly,US
TDENN,47.419,-121.444,madis,subhourly,US
TDEOR,45.55,-122.39,madis,subhourly,US
TDFS2,43.866,-103.624,madis,subhourly,US
TDGL1,32.432,-91.367,madis,subhourly,US
TDIAM,48.05,-122.952,madis,subhourly,US
TDLV2,38.365,-79.205,madis,subhourly,US
TDODS,47.104,-119.559,madis,subhourly,US
TDRYD,47.556,-120.587,madis,subhourly,US
TDSTY,46.809,-117.655,madis,subhourly,US
TEAST,47.269,-121.239,madis,subhourly,US
TEBA2,61.181,-144.339,madis,subhourly,US
TEEA2,63.712,-143.943,madis,subhourly,US
TEGS1,35.024,-81,madis,subhourly,US
TEKC1,33.459,-116.923,madis,subhourly,US
TEKW1,47.228,-117.082,madis,subhourly,US
TELBE,46.763,-122.192,madis,subhourly,US
TELCO,37.946,-107.852,madis,subhourly,US
TELKH,47.113,-120.786,madis,subhourly,US
TEM13,38.837,-119.887,madis,subhourly,US
TEM27,33,-107.87,madis,subhourly,US
TEMC1,33.497,-117.151,madis,subhourly,US
TENN6,41.659,-73.529,madis,subhourly,US
TENO2,35.597,-95.049,madis,subhourly,US
TEOC1,33.416,-117.525,madis,subhourly,US
TEPM8,45.933,-113.742,madis,subhourly,US
TER,43.842,-112.418,madis,subhourly,US
TERC1,41.511,-123.978,madis,subhourly,US
TERC2,37.374,-106.334,madis,subhourly,US
TESL1,29.668,-91.238,madis,subhourly,US
TETA2,62.588,-142.058,madis,subhourly,US
TETWY,43.735,-110.809,madis,subhourly,US
TEUA2,64.947,-145.522,madis,subhourly,US
TEXA2,63.839,-145.914,madis,subhourly,US
TEXG1,33.228,-85.221,madis,subhourly,US
TEXN2,41.801,-118.451,madis,subhourly,US
TEXT2,33.374,-94.046,madis,subhourly,US
TFAUN,47.527,-122.39,madis,subhourly,US
TFAW4,44.917,-110.421,madis,subhourly,US
TFCN7,35.92,-78.952,madis,subhourly,US
TFDT1,35.198,-86.273,madis,subhourly,US
TFERR,48.661,-118.835,madis,subhourly,US
TFFP1,40.381,-79.762,madis,subhourly,US
TFGW2,39.337,-79.994,madis,subhourly,US
TFHA3,34.383,-111.095,madis,subhourly,US
TFLG1,34.732,-83.376,madis,subhourly,US
TFNO1,38.797,-83.491,madis,subhourly,US
TFRAN,47.426,-121.432,madis,subhourly,US
TFREN,46.05,-118.496,madis,subhourly,US
TFRU1,37.192,-112.027,madis,subhourly,US
TFTA2,64.283,-146.278,madis,subhourly,US
TFTC1,35.14,-119.449,madis,subhourly,US
TFWM6,34.331,-88.707,madis,subhourly,US
TGAP1,41.899,-77.139,madis,subhourly,US
TGCC1,37.917,-119.659,madis,subhourly,US
TGFI1,42.308,-114.318,madis,subhourly,US
TGLU1,41.898,-111.63,madis,subhourly,US
TGLW2,39.313,-80.034,madis,subhourly,US
TGMND,46.802,-123.007,madis,subhourly,US
TGREN,47.303,-124.25,madis,subhourly,US
TGSC1,40.825,-122.66,madis,subhourly,US
TGSK1,38.435,-96.561,madis,subhourly,US
TGSU1,41.886,-111.569,madis,subhourly,US
THAC1,40.782,-123.127,madis,subhourly,US
THAM8,47.576,-115.284,madis,subhourly,US
THBW1,48.528,-120.99,madis,subhourly,US
THCK2,39.05,-84.485,madis,subhourly,US
THCU1,40.624,-111.533,madis,subhourly,US
THDN7,35.195,-83.151,madis,subhourly,US
THECK,48.07,-124.049,madis,subhourly,US
THFI1,44.723,-114.996,madis,subhourly,US
THFW2,38.8,-80.076,madis,subhourly,US
THHC1,36.232,-121.55,madis,subhourly,US
THIU1,39.238,-111.52,madis,subhourly,US
THKO2,34.776,-94.898,madis,subhourly,US
THKW2,39.209,-78.892,madis,subhourly,US
THLN2,39.391,-119.838,madis,subhourly,US
THLO1,41.83,-83.2,madis,subhourly,US
THLT1,36.296,-83.585,madis,subhourly,US
THMC1,34.139,-117.709,madis,subhourly,US
THMI1,44.396,-112.108,madis,subhourly,US
THMW2,37.955,-81.077,madis,subhourly,US
THNA2,58.283,-134.375,madis,subhourly,US
THNW2,38.603,-79.682,madis,subhourly,US
THOA2,55.697,-132.54,madis,subhourly,US
THOC1,39.171,-120.155,madis,subhourly,US
THOME,47.444,-121.669,madis,subhourly,US
THON3,43.109,-70.949,madis,subhourly,US
THON7,35.149,-80.642,madis,subhourly,US
THOOD,47.858,-122.622,madis,subhourly,US
THORS,46.045,-119.225,madis,subhourly,US
THPC1,35.101,-118.422,madis,subhourly,US
THRK1,37.939,-96.306,madis,subhourly,US
THRO1,41.694,-83.472,madis,subhourly,US
THRW4,44.311,-110.15,madis,subhourly,US
THRWW,38.236,-121.394,madis,subhourly,US
THSC1,39.296,-122.655,madis,subhourly,US
THTA2,58.281,-134.37,madis,subhourly,US
THTC1,38.255,-121.44,madis,subhourly,US
THUW4,44.369,-110.578,madis,subhourly,US
THYC1,37.828,-120.011,madis,subhourly,US
TI182,46.25,-119.369,madis,subhourly,US
TIBC1,37.89,-122.45,madis,subhourly,US
TIBM8,46.349,-111.853,madis,subhourly,US
TICU1,40.403,-112.014,madis,subhourly,US
TICW4,44.027,-109.179,madis,subhourly,US
TIEW4,44.812,-107.41,madis,subhourly,US
TIFM7,36.631,-94.587,madis,subhourly,US
TIFP1,41.774,-76.775,madis,subhourly,US
TIGAX,31.439,-83.59,madis,subhourly,US
TIGC1,38.446,-120.483,madis,subhourly,US
TIKV2,37.467,-79.929,madis,subhourly,US
TILO3,42.931,-122.947,madis,subhourly,US
TILT2,28.309,-98.557,madis,subhourly,US
TILW1,46.596,-122.458,madis,subhourly,US
TIM59,45.33,-121.711,madis,subhourly,US
TIM70,45.345,-121.712,madis,subhourly,US
TIMN2,36.05,-115,madis,subhourly,US
TIMU1,40.428,-111.617,madis,subhourly,US
TINDV,48.069,-123.626,madis,subhourly,US
TINDX,47.814,-121.571,madis,subhourly,US
TIOC1,37.893,-119.257,madis,subhourly,US
TIPO3,44.656,-118.426,madis,subhourly,US
TISM6,34.778,-88.165,madis,subhourly,US
TIVP1,41.331,-76.697,madis,subhourly,US
TIXC1,32.574,-117.127,madis,subhourly,US
TJEC1,32.55,-117.108,madis,subhourly,US
TJGC1,34.477,-120.131,madis,subhourly,US
TJLO1,39.542,-82.058,madis,subhourly,US
TJMN2,41.319,-116.341,madis,subhourly,US
TJRN5,35.006,-106.316,madis,subhourly,US
TKEA2,57.78,-135.22,madis,subhourly,US
TKENT,47.353,-122.245,madis,subhourly,US
TKEYS,48.159,-122.672,madis,subhourly,US
TKFA2,63.325,-143.002,madis,subhourly,US
TKGA1,32.484,-85.556,madis,subhourly,US
TKHA2,59.399,-135.813,madis,subhourly,US
TKING,47.794,-122.494,madis,subhourly,US
TKLA2,63.526,-150.046,madis,subhourly,US
TKLT2,31.33,-100.64,madis,subhourly,US
TKMM2,38.993,-76.973,madis,subhourly,US
TKMMO,46.346,-123.51,madis,subhourly,US
TKNAP,47.789,-120.134,madis,subhourly,US
TKPA2,62.129,-150.04,madis,subhourly,US
TKRA2,62.957,-143.346,madis,subhourly,US
TKRT2,30.399,-97.664,madis,subhourly,US
TKRW2,37.94,-82.352,madis,subhourly,US
TKSN4,41.013,-75.086,madis,subhourly,US
TKSV2,37.32,-79.93,madis,subhourly,US
TKSW1,47.332,-121.47,madis,subhourly,US
TKUA2,58.539,-133.7,madis,subhourly,US
TKVA2,62.63,-150.776,madis,subhourly,US
TL,43.73,-116.14,madis,subhourly,US
TLAUR,48.998,-118.225,madis,subhourly,US
TLCT2,33.391,-95.062,madis,subhourly,US
TLDA1,33.441,-86.081,madis,subhourly,US
TLDA2,63.434,-153.346,madis,subhourly,US
TLDC1,37.884,-122.222,madis,subhourly,US
TLGC1,33.478,-117.486,madis,subhourly,US
TLGSD,33.478,-117.434,madis,subhourly,US
TLHC1,38.03,-120.353,madis,subhourly,US
TLIBE,47.67,-117.111,madis,subhourly,US
TLITT,47.787,-117.407,madis,subhourly,US
TLKSD,33.226,-117.076,madis,subhourly,US
TLLK2,37.555,-83.594,madis,subhourly,US
TLNC1,35.564,-120.703,madis,subhourly,US
TLNT2,29.565,-95.054,madis,subhourly,US
TLNU1,39.677,-110.434,madis,subhourly,US
TLOO1,41.657,-83.552,madis,subhourly,US
TLOUP,48.39,-119.879,madis,subhourly,US
TLPT1,35.384,-84.323,madis,subhourly,US
TLRW1,47.694,-121.688,madis,subhourly,US
TLSC2,39.999,-107.236,madis,subhourly,US
TLSO2,36.141,-96.006,madis,subhourly,US
TLST2,34.543,-101.741,madis,subhourly,US
TLTN3,43.442,-71.589,madis,subhourly,US
TLTT2,30.249,-97.72,madis,subhourly,US
TLVN5,31.948,-106.666,madis,subhourly,US
TLVRA,40.616,-111.918,madis,subhourly,US
TLXA1,33.572,-86.057,madis,subhourly,US
TLYNN,47.831,-122.263,madis,subhourly,US
TLYO3,45.125,-122.072,madis,subhourly,US
TMAI4,41.964,-92.637,madis,subhourly,US
TMANE,46.887,-120.427,madis,subhourly,US
TMANS,47.816,-119.363,madis,subhourly,US
TMANW,46.928,-120.5,madis,subhourly,US
TMARY,45.698,-120.815,madis,subhourly,US
TMAW3,44.022,-90.505,madis,subhourly,US
TMBN2,38.377,-115.506,madis,subhourly,US
TMBT2,30.119,-95.646,madis,subhourly,US
TMCK2,38.951,-84.338,madis,subhourly,US
TMCM5,45.86,-96.358,madis,subhourly,US
TMCM8,46.143,-114.448,madis,subhourly,US
TMDHN,46.467,-119.541,madis,subhourly,US
TMEDI,47.295,-117.337,madis,subhourly,US
TMETH,48.078,-120.011,madis,subhourly,US
TMETL,48.876,-117.348,madis,subhourly,US
TMFO3,43.243,-121.353,madis,subhourly,US
TMHC2,39.295,-104.923,madis,subhourly,US
TMKO3,45.457,-123.802,madis,subhourly,US
TMLG1,30.876,-84.046,madis,subhourly,US
TMLM7,37.029,-89.262,madis,subhourly,US
TMLN2,40.979,-115.172,madis,subhourly,US
TMMW2,37.701,-81.294,madis,subhourly,US
TMNC1,35.071,-118.481,madis,subhourly,US
TMNRO,47.847,-122.01,madis,subhourly,US
TMOG1,31.302,-82.561,madis,subhourly,US
TMOP1,40.348,-80.049,madis,subhourly,US
TMPM2,39.224,-77.316,madis,subhourly,US
TMPT2,31.056,-97.347,madis,subhourly,US
TMRC1,37.165,-119.2,madis,subhourly,US
TMRM8,48.427,-112.989,madis,subhourly,US
TMRO3,44.049,-121.4,madis,subhourly,US
TMRW2,40.542,-80.584,madis,subhourly,US
TMSC3,41.695,-73.062,madis,subhourly,US
TMTF1,28.024,-82.428,madis,subhourly,US
TMTN8,48.809,-99.839,madis,subhourly,US
TMUKI,47.949,-122.305,madis,subhourly,US
TMUN2,40.965,-115.165,madis,subhourly,US
TNAW1,47.246,-120.861,madis,subhourly,US
TNCA1,34.661,-87.405,madis,subhourly,US
TNCG1,33.923,-84.304,madis,subhourly,US
TNCT2,30.195,-97.737,madis,subhourly,US
TNESP,48.202,-119.004,madis,subhourly,US
TNFM6,33.281,-89.139,madis,subhourly,US
TNGT2,29.203,-103.619,madis,subhourly,US
TNINE,47.777,-117.544,madis,subhourly,US
TNISQ,47.068,-122.716,madis,subhourly,US
TNKP1,41.558,-75.895,madis,subhourly,US
TNLH1,21.405,-157.851,madis,subhourly,US
TNLT2,28.587,-98.546,madis,subhourly,US
TNRA3,33.98,-111.303,madis,subhourly,US
TNRC1,33.948,-117.822,madis,subhourly,US
TNRN6,42.15,-74.117,madis,subhourly,US
TNSC1,32.675,-116.094,madis,subhourly,US
TNST2,29.783,-95.44,madis,subhourly,US
TNWA2,62.737,-141.208,madis,subhourly,US
TO,34.21,-118.87,madis,subhourly,US
TOAP6,14.262,-170.687,madis,subhourly,US
TOBG1,32.809,-83.758,madis,subhourly,US
TOCT2,30.819,-98.5,madis,subhourly,US
TODA4,35.077,-92.54,madis,subhourly,US
TOFO3,43.219,-122.413,madis,subhourly,US
TOFW1,48.022,-123.958,madis,subhourly,US
TOGC1,35.681,-116.422,madis,subhourly,US
TOGW4,43.749,-110.058,madis,subhourly,US
TOHW1,46.119,-117.851,madis,subhourly,US
TOKO3,43.227,-122.425,madis,subhourly,US
TOKW1,46.707,-123.967,madis,subhourly,US
TOLI4,42,-92.586,madis,subhourly,US
TOLKX,68.641,-149.572,madis,subhourly,US
TOLN5,36.475,-105.195,madis,subhourly,US
TOLN8,47.861,-98.494,madis,subhourly,US
TOMK2,37.869,-82.596,madis,subhourly,US
TONA1,34.698,-86.551,madis,subhourly,US
TONNV,38.053,-117.216,madis,subhourly,US
TONO2,36.672,-97.309,madis,subhourly,US
TOO,40.514,-112.313,madis,subhourly,US
TOOA2,68.617,-149.3,madis,subhourly,US
TOPI1,42.625,-112.089,madis,subhourly,US
TOPK1,39.099,-95.725,madis,subhourly,US
TOPN7,35.169,-83.408,madis,subhourly,US
TOPW1,46.311,-120.787,madis,subhourly,US
TOPW4,44.152,-110.221,madis,subhourly,US
TORC1,36.546,-121.631,madis,subhourly,US
TORNV,40.063,-118.648,madis,subhourly,US
TORQ8,49,-103.352,madis,subhourly,US
TORU1,38.303,-111.294,madis,subhourly,US
TORW2,38.339,-81.842,madis,subhourly,US
TOSA2,63.35,-142.98,madis,subhourly,US
TOSM,46.122,-111.495,madis,subhourly,US
TOSM8,46.147,-111.42,madis,subhourly,US
TOSN7,35.55,-83.292,madis,subhourly,US
TOTC1,34.061,-117.268,madis,subhourly,US
TOTHE,46.809,-119.129,madis,subhourly,US
TOUNV,40.063,-118.648,madis,subhourly,US
TOUTL,46.327,-120.078,madis,subhourly,US
TOWC2,40.537,-106.677,madis,subhourly,US
TOWG1,33.115,-83.871,madis,subhourly,US
TOWK1,37.796,-97.014,madis,subhourly,US
TOWM6,32.304,-90.192,madis,subhourly,US
TOWN7,35.798,-77.592,madis,subhourly,US
TOWV1,43.051,-72.701,madis,subhourly,US
TOWW3,45.336,-88.593,madis,subhourly,US
TOXA1,31.881,-87.737,madis,subhourly,US
TOYST,47.085,-123.033,madis,subhourly,US
TPAC1,34.084,-118.599,madis,subhourly,US
TPAK1,39.067,-95.649,madis,subhourly,US
TPALI,47.302,-120.068,madis,subhourly,US
TPARA,45.871,-122.71,madis,subhourly,US
TPARK,46.539,-120.472,madis,subhourly,US
TPC,40.435,-111.707,madis,subhourly,US
TPCO1,40.27,-81.288,madis,subhourly,US
TPCT2,30.882,-98.551,madis,subhourly,US
TPEM6,34.235,-88.696,madis,subhourly,US
TPEM8,44.786,-111.71,madis,subhourly,US
TPEO3,43.835,-121.083,madis,subhourly,US
TPERR,47.653,-117.392,madis,subhourly,US
TPFOX,33.606,-116.454,madis,subhourly,US
TPFW1,46.165,-121.031,madis,subhourly,US
TPGC1,34.136,-118.606,madis,subhourly,US
TPHT2,29.57,-99.248,madis,subhourly,US
TPKC1,35.855,-121.322,madis,subhourly,US
TPKU1,41.793,-111.546,madis,subhourly,US
TPLI4,42.836,-92.257,madis,subhourly,US
TPLM2,38.9,-76.44,madis,subhourly,US
TPOLE,48.892,-122.486,madis,subhourly,US
TPPO1,40.27,-81.291,madis,subhourly,US
TPR,41.206,-111.817,madis,subhourly,US
TPRIC,47.305,-121.307,madis,subhourly,US
TPROS,46.218,-119.749,madis,subhourly,US
TPTI4,41.946,-94.879,madis,subhourly,US
TPTT1,36.344,-89.518,madis,subhourly,US
TQAP1,40.807,-75.972,madis,subhourly,US
TQIN2,38.487,-117.095,madis,subhourly,US
TQUA2,60.982,-153.918,madis,subhourly,US
TQUEE,47.536,-124.333,madis,subhourly,US
TQUIN,47.233,-119.958,madis,subhourly,US
TR073,33.546,-109.607,madis,subhourly,US
TR089,36.649,-93.744,madis,subhourly,US
TR107,40.352,-120.304,madis,subhourly,US
TR110,38.515,-122.073,madis,subhourly,US
TR112,40.592,-124.147,madis,subhourly,US
TR113,38.746,-120.553,madis,subhourly,US
TR118,33.765,-117.584,madis,subhourly,US
TR119,33.361,-116.824,madis,subhourly,US
TR120,32.834,-116.74,madis,subhourly,US
TR123,39.343,-111.25,madis,subhourly,US
TR136,60.87,-149.59,madis,subhourly,US
TR139,41.933,-123.477,madis,subhourly,US
TR145,40.071,-121.609,madis,subhourly,US
TR147,40.649,-120.895,madis,subhourly,US
TR154,34.737,-119.985,madis,subhourly,US
TR158,41.363,-121.764,madis,subhourly,US
TR162,37.189,-119.372,madis,subhourly,US
TR163,39.232,-122.645,madis,subhourly,US
TR164,39.308,-122.94,madis,subhourly,US
TR165,36.108,-118.638,madis,subhourly,US
TR168,40.022,-121.222,madis,subhourly,US
TR169,41.432,-121.763,madis,subhourly,US
TR172,37.398,-119.578,madis,subhourly,US
TR173,42.022,-122.766,madis,subhourly,US
TR174,35.663,-118.025,madis,subhourly,US
TR180,40.099,-120.771,madis,subhourly,US
TR181,40.022,-121.221,madis,subhourly,US
TR189,41.647,-123.099,madis,subhourly,US
TR197,39.452,-121.049,madis,subhourly,US
TR200,41.623,-121.408,madis,subhourly,US
TR216,44.23,-115.247,madis,subhourly,US
TR225,46.383,-119.423,madis,subhourly,US
TR241,46.534,-119.88,madis,subhourly,US
TR243,45.537,-115.311,madis,subhourly,US
TR251,42.174,-114.205,madis,subhourly,US
TR255,44.36,-115.778,madis,subhourly,US
TR256,42.396,-113.004,madis,subhourly,US
TR257,43.627,-113.964,madis,subhourly,US
TR259,46.162,-115.771,madis,subhourly,US
TR266,47.046,-114.112,madis,subhourly,US
TR267,45.734,-113.881,madis,subhourly,US
TR276,47.422,-112.676,madis,subhourly,US
TR279,46.781,-114.589,madis,subhourly,US
TR283,47.512,-113.239,madis,subhourly,US
TR285,45.983,-114.216,madis,subhourly,US
TR286,47.4,-115.376,madis,subhourly,US
TR287,45.492,-109.916,madis,subhourly,US
TR315,36.218,-105.758,madis,subhourly,US
TR335,43.565,-116.209,madis,subhourly,US
TR337,38.383,-109.208,madis,subhourly,US
TR347,43.533,-114.859,madis,subhourly,US
TR377,42.26,-110.44,madis,subhourly,US
TR381,35.228,-106.181,madis,subhourly,US
TR382,43.44,-107.782,madis,subhourly,US
TR383,40.879,-109.46,madis,subhourly,US
TR390,38.496,-108.353,madis,subhourly,US
TR419,36.183,-120.499,madis,subhourly,US
TR421,39.604,-114.669,madis,subhourly,US
TR463,46.34,-111.627,madis,subhourly,US
TR464,47.189,-108.034,madis,subhourly,US
TR485,45.699,-112.646,madis,subhourly,US
TR488,35.417,-111.817,madis,subhourly,US
TR489,34.359,-111.678,madis,subhourly,US
TR491,35.908,-111.903,madis,subhourly,US
TR492,35.238,-112.217,madis,subhourly,US
TR518,35.71,-117.972,madis,subhourly,US
TR543,48.539,-114.559,madis,subhourly,US
TR563,38.961,-105.408,madis,subhourly,US
TR564,46.451,-113.89,madis,subhourly,US
TR587,46.47,-115.452,madis,subhourly,US
TR588,47.1,-110.837,madis,subhourly,US
TR597,63.906,-148.991,madis,subhourly,US
TR605,60.87,-149.59,madis,subhourly,US
TR611,32.554,-105.119,madis,subhourly,US
TR668,47.801,-90.953,madis,subhourly,US
TR669,47.656,-92.612,madis,subhourly,US
TR713,45.482,-106.526,madis,subhourly,US
TR714,45.45,-106.706,madis,subhourly,US
TR724,33.5,-103.918,madis,subhourly,US
TR726,48.301,-113.84,madis,subhourly,US
TR730,41.653,-118.044,madis,subhourly,US
TR739,36.598,-106.929,madis,subhourly,US
TR749,40.781,-72.898,madis,subhourly,US
TR782,34.209,-116.959,madis,subhourly,US
TR868,33.004,-108.041,madis,subhourly,US
TR889,36.796,-85.38,madis,subhourly,US
TR931,33.234,-105.006,madis,subhourly,US
TR937,40.839,-109.659,madis,subhourly,US
TR950,46.271,-122.892,madis,subhourly,US
TR951,45.723,-122.345,madis,subhourly,US
TR978,47.719,-91.167,madis,subhourly,US
TR992,30.366,-87.137,madis,subhourly,US
TR999,39.908,-120.298,madis,subhourly,US
TRA,43.585,-112.969,madis,subhourly,US
TRAF1,29.41,-82.17,madis,subhourly,US
TRAM5,45.769,-96.638,madis,subhourly,US
TRAN7,35.563,-77.086,madis,subhourly,US
TRAT1,36.345,-81.729,madis,subhourly,US
TRAV2,37.989,-79.803,madis,subhourly,US
TRBA2,65.465,-148.629,madis,subhourly,US
TRBC1,38.746,-121.258,madis,subhourly,US
TRBC2,38.818,-106.609,madis,subhourly,US
TRBC3,41.657,-73.106,madis,subhourly,US
TRBW1,47.869,-122.816,madis,subhourly,US
TRCI4,41.281,-92.859,madis,subhourly,US
TRCM5,43.685,-93.04,madis,subhourly,US
TRCM8,47.867,-115.625,madis,subhourly,US
TRCP1,39.892,-76.237,madis,subhourly,US
TRCT2,30.406,-100.017,madis,subhourly,US
TRCW1,46.057,-118.668,madis,subhourly,US
TRDA2,63.416,-145.748,madis,subhourly,US
TRDF1,28.416,-80.593,madis,subhourly,US
TRDK1,38.24,-94.668,madis,subhourly,US
TREC1,36.465,-118.862,madis,subhourly,US
TREN5,36.128,-105.527,madis,subhourly,US
TRFM,47.901,-112.16,madis,subhourly,US
TRFM5,48.114,-96.179,madis,subhourly,US
TRFO3,43.002,-123.779,madis,subhourly,US
TRGW1,47.233,-120.294,madis,subhourly,US
TRGW4,42.067,-104.133,madis,subhourly,US
TRHC1,40.727,-122.793,madis,subhourly,US
TRIC1,34.367,-118.764,madis,subhourly,US
TRII1,42.829,-116.589,madis,subhourly,US
TRIO1,39.486,-82.078,madis,subhourly,US
TRITZ,47.11,-118.395,madis,subhourly,US
TRIVE,48.5,-119.509,madis,subhourly,US
TRIW1,48.075,-120.849,madis,subhourly,US
TRJO,40.557,-112.061,madis,subhourly,US
TRKW1,45.721,-122.037,madis,subhourly,US
TRLK1,37.742,-95.933,madis,subhourly,US
TRLM4,46.19,-84.981,madis,subhourly,US
TRLO2,33.879,-97.934,madis,subhourly,US
TRLU1,40.679,-110.949,madis,subhourly,US
TRMC1,36.911,-119.307,madis,subhourly,US
TRMI1,43.629,-115.438,madis,subhourly,US
TRMK2,38.176,-83.406,madis,subhourly,US
TRNI4,41.964,-95.992,madis,subhourly,US
TRNT2,32.243,-96.141,madis,subhourly,US
TRNW1,47.417,-117.526,madis,subhourly,US
TROCK,47.078,-120.724,madis,subhourly,US
TROM6,34.09,-88.865,madis,subhourly,US
TROM8,48.467,-115.917,madis,subhourly,US
TRPK2,38.66,-84.017,madis,subhourly,US
TRPO1,39.092,-84.379,madis,subhourly,US
TRPU1,37.517,-111.978,madis,subhourly,US
TRPW4,42.764,-110.591,madis,subhourly,US
TRQC2,39.253,-106.374,madis,subhourly,US
TRQO1,39.012,-83.516,madis,subhourly,US
TRRC1,32.657,-116.317,madis,subhourly,US
TRRG1,34.75,-83.405,madis,subhourly,US
TRRM4,47.229,-88.385,madis,subhourly,US
TRRM5,48.186,-96.17,madis,subhourly,US
TRRP1,41.453,-77.047,madis,subhourly,US
TRSA2,64.887,-146.802,madis,subhourly,US
TRSM5,48.492,-96.955,madis,subhourly,US
TRTC1,39.166,-120.143,madis,subhourly,US
TRTC2,39.167,-105.122,madis,subhourly,US
TRTK2,38.177,-83.405,madis,subhourly,US
TRTN6,42.228,-77.276,madis,subhourly,US
TRTN7,35.065,-77.351,madis,subhourly,US
TRTO1,39.814,-84.368,madis,subhourly,US
TRTV2,36.617,-81.378,madis,subhourly,US
TRUC1,39.301,-120.184,madis,subhourly,US
TRUN2,36.374,-115.781,madis,subhourly,US
TRUN5,36.059,-105.769,madis,subhourly,US
TRUO1,41.683,-80.954,madis,subhourly,US
TRUV2,37.426,-79.87,madis,subhourly,US
TRVV2,36.694,-80.31,madis,subhourly,US
TRWC1,40.725,-122.801,madis,subhourly,US
TRXA1,31.79,-86,madis,subhourly,US
TRXC2,38.819,-106.608,madis,subhourly,US
TRYEG,46.947,-120.203,madis,subhourly,US
TRYM7,39.009,-90.978,madis,subhourly,US
TRYO1,40.04,-84.198,madis,subhourly,US
TRYO3,45.946,-117.45,madis,subhourly,US
TRZO3,40.739,-109.673,madis,subhourly,US
TS001,37.31,-107.164,madis,subhourly,US
TS010,44.76,-109.416,madis,subhourly,US
TS037,37.607,-118.649,madis,subhourly,US
TS040,37.265,-107.665,madis,subhourly,US
TS041,39.403,-107.584,madis,subhourly,US
TS042,37.707,-118.9,madis,subhourly,US
TS052,39.4,-120.212,madis,subhourly,US
TS053,45.635,-109.871,madis,subhourly,US
TS055,33.746,-107.979,madis,subhourly,US
TS161,35.542,-76.223,madis,subhourly,US
TS178,44.803,-113.047,madis,subhourly,US
TS211,38.234,-91.15,madis,subhourly,US
TS214,47.617,-94.343,madis,subhourly,US
TS215,47.427,-94.34,madis,subhourly,US
TS220,38.918,-114.335,madis,subhourly,US
TS248,40.874,-72.714,madis,subhourly,US
TS256,46.682,-115.075,madis,subhourly,US
TS259,48.363,-115.319,madis,subhourly,US
TS286,36.221,-111.966,madis,subhourly,US
TS301,40.369,-112.295,madis,subhourly,US
TS302,40.032,-111.198,madis,subhourly,US
TS305,40.364,-112.294,madis,subhourly,US
TS319,48.365,-119.154,madis,subhourly,US
TS337,34.269,-78.453,madis,subhourly,US
TS338,36.204,-78.876,madis,subhourly,US
TS343,43.282,-110.641,madis,subhourly,US
TS346,34.494,-118.197,madis,subhourly,US
TS376,45.994,-93.573,madis,subhourly,US
TS378,39.359,-122.671,madis,subhourly,US
TS388,39.542,-121.491,madis,subhourly,US
TS389,38.45,-120.494,madis,subhourly,US
TS392,38.816,-122.682,madis,subhourly,US
TS395,44.684,-116.882,madis,subhourly,US
TS399,43.766,-103.926,madis,subhourly,US
TS428,46.895,-103.378,madis,subhourly,US
TS445,38.572,-120.272,madis,subhourly,US
TS447,36.037,-106.05,madis,subhourly,US
TS480,41.632,-87.088,madis,subhourly,US
TS485,43.734,-103.829,madis,subhourly,US
TS517,45.031,-121.497,madis,subhourly,US
TS545,33.555,-111.614,madis,subhourly,US
TS557,43.969,-108.989,madis,subhourly,US
TS563,38.702,-86.727,madis,subhourly,US
TS564,38.06,-86.626,madis,subhourly,US
TS565,37.992,-111.461,madis,subhourly,US
TS566,36.411,-116.338,madis,subhourly,US
TS577,37.704,-112.249,madis,subhourly,US
TS578,37.273,-108.743,madis,subhourly,US
TS579,35.748,-109.054,madis,subhourly,US
TS582,40.724,-105.572,madis,subhourly,US
TS584,45.991,-105.793,madis,subhourly,US
TS586,42.917,-112.6,madis,subhourly,US
TS587,43.525,-116.065,madis,subhourly,US
TS588,47.218,-107.826,madis,subhourly,US
TS592,60.577,-150.471,madis,subhourly,US
TS607,24.724,-81.389,madis,subhourly,US
TS619,44.958,-119.515,madis,subhourly,US
TS623,37.066,-120.804,madis,subhourly,US
TS624,40.856,-122.819,madis,subhourly,US
TS627,45.383,-122.831,madis,subhourly,US
TS629,30.624,-88.709,madis,subhourly,US
TS633,46.681,-100.238,madis,subhourly,US
TS640,32.383,-110.212,madis,subhourly,US
TS642,44.716,-93.636,madis,subhourly,US
TS643,26.039,-81.064,madis,subhourly,US
TS648,33.631,-116.691,madis,subhourly,US
TS654,40.377,-108.522,madis,subhourly,US
TS661,41.309,-107.056,madis,subhourly,US
TS673,46.898,-110.919,madis,subhourly,US
TS674,43.861,-119.732,madis,subhourly,US
TS675,46.719,-114.157,madis,subhourly,US
TS679,43.302,-121.792,madis,subhourly,US
TS680,47.326,-101.377,madis,subhourly,US
TS684,47.063,-115.257,madis,subhourly,US
TS702,40.578,-108.744,madis,subhourly,US
TS705,47.412,-108.146,madis,subhourly,US
TS715,37.74,-112.597,madis,subhourly,US
TS716,37.386,-113.502,madis,subhourly,US
TS717,41.089,-74.913,madis,subhourly,US
TS718,44.183,-115.257,madis,subhourly,US
TS725,42.318,-121.44,madis,subhourly,US
TS730,43.565,-116.209,madis,subhourly,US
TS732,38.695,-83.197,madis,subhourly,US
TS735,42.158,-110.716,madis,subhourly,US
TS737,27.052,-80.124,madis,subhourly,US
TS738,26.176,-80.896,madis,subhourly,US
TS745,41.365,-74.027,madis,subhourly,US
TS748,37.007,-119.237,madis,subhourly,US
TS755,26.441,-82.105,madis,subhourly,US
TS761,37.352,-107.915,madis,subhourly,US
TS771,43.264,-111.42,madis,subhourly,US
TS772,42.107,-111.701,madis,subhourly,US
TS777,41.396,-123.479,madis,subhourly,US
TS790,39.343,-95.854,madis,subhourly,US
TS802,44.087,-117.226,madis,subhourly,US
TS808,37.654,-112.778,madis,subhourly,US
TS809,39.724,-105.25,madis,subhourly,US
TS817,38.946,-75.936,madis,subhourly,US
TS818,30.74,-82.128,madis,subhourly,US
TS828,39.124,-112.047,madis,subhourly,US
TS848,40.724,-105.572,madis,subhourly,US
TS856,47.014,-113.333,madis,subhourly,US
TS862,43.22,-121.793,madis,subhourly,US
TS868,30.133,-85.064,madis,subhourly,US
TS869,30.353,-84.306,madis,subhourly,US
TS870,46.158,-115.7,madis,subhourly,US
TS871,40.911,-106.868,madis,subhourly,US
TS872,37.96,-105.804,madis,subhourly,US
TS873,37.021,-116.609,madis,subhourly,US
TS874,46.231,-120.828,madis,subhourly,US
TS875,38.541,-105.204,madis,subhourly,US
TS876,34.656,-112.414,madis,subhourly,US
TS877,40.071,-121.609,madis,subhourly,US
TS888,43.57,-72.53,madis,subhourly,US
TS891,36.437,-76.7,madis,subhourly,US
TS894,38.054,-108.305,madis,subhourly,US
TS895,47.669,-114.788,madis,subhourly,US
TS896,27.12,-81.083,madis,subhourly,US
TS897,45.267,-106.35,madis,subhourly,US
TS901,40.779,-122.158,madis,subhourly,US
TS903,38.825,-120.729,madis,subhourly,US
TS909,26.305,-80.978,madis,subhourly,US
TS911,46.579,-112.08,madis,subhourly,US
TS924,40.618,-121.45,madis,subhourly,US
TS934,46.821,-114.101,madis,subhourly,US
TS946,43.565,-116.209,madis,subhourly,US
TS947,30.267,-89.906,madis,subhourly,US
TS949,47.626,-113.692,madis,subhourly,US
TS950,42.832,-122.289,madis,subhourly,US
TS951,42.455,-123.617,madis,subhourly,US
TS954,42.642,-106.367,madis,subhourly,US
TS959,28.996,-81.537,madis,subhourly,US
TS960,43.203,-116.025,madis,subhourly,US
TS961,43.273,-116.151,madis,subhourly,US
TS962,43.106,-115.997,madis,subhourly,US
TS964,39.664,-107.11,madis,subhourly,US
TS966,46.664,-113.424,madis,subhourly,US
TS967,32.556,-110.218,madis,subhourly,US
TS976,45.672,-121.887,madis,subhourly,US
TS982,32.824,-92.078,madis,subhourly,US
TS989,63.906,-148.991,madis,subhourly,US
TSAMI,48.688,-122.4,madis,subhourly,US
TSATU,45.985,-120.652,madis,subhourly,US
TSBLE,47.253,-120.693,madis,subhourly,US
TSCC1,33.755,-117.5,madis,subhourly,US
TSCK1,39.004,-97.874,madis,subhourly,US
TSDC1,35.289,-118.451,madis,subhourly,US
TSEIB,48.094,-123.278,madis,subhourly,US
TSELL,46.131,-119.602,madis,subhourly,US
TSG ,63.383,-143.333,isd,hourly,US
TSHC1,36.491,-118.825,madis,subhourly,US
TSHER,48.608,-118.479,madis,subhourly,US
TSILI,47.043,-119.916,madis,subhourly,US
TSLA2,58.39,-134.77,madis,subhourly,US
TSNN5,36.652,-105.972,madis,subhourly,US
TSOAP,47.382,-119.484,madis,subhourly,US
TSOUT,47.513,-122.495,madis,subhourly,US
TSOW1,48.664,-117.482,madis,subhourly,US
TSPAN,47.449,-117.385,madis,subhourly,US
TSQC1,34.92,-120.181,madis,subhourly,US
TSQN7,35.075,-84.127,madis,subhourly,US
TSR18,47.509,-121.885,madis,subhourly,US
TSTEV,47.746,-121.089,madis,subhourly,US
TSTIL,48.204,-122.214,madis,subhourly,US
TSTM8,46.166,-111.476,madis,subhourly,US
TSUMA,48.992,-122.272,madis,subhourly,US
TSUMT,46.714,-120.414,madis,subhourly,US
TSUNS,47.532,-121.985,madis,subhourly,US
TSWI3,38.136,-86.641,madis,subhourly,US
TT005,43.565,-116.209,madis,subhourly,US
TT006,43.565,-116.208,madis,subhourly,US
TT007,43.568,-116.211,madis,subhourly,US
TT010,39.424,-111.127,madis,subhourly,US
TT011,39.422,-111.218,madis,subhourly,US
TT012,41.007,-106.073,madis,subhourly,US
TT013,41.066,-106.006,madis,subhourly,US
TT015,41.012,-106.177,madis,subhourly,US
TT016,43.565,-116.209,madis,subhourly,US
TT017,43.565,-116.208,madis,subhourly,US
TT018,43.565,-116.208,madis,subhourly,US
TT020,43.565,-116.208,madis,subhourly,US
TT021,43.565,-116.208,madis,subhourly,US
TT022,43.565,-116.208,madis,subhourly,US
TT023,43.565,-116.209,madis,subhourly,US
TT026,19.509,-154.958,madis,subhourly,US
TT027,19.479,-154.887,madis,subhourly,US
TT028,43.565,-116.209,madis,subhourly,US
TT029,43.565,-116.209,madis,subhourly,US
TT030,43.565,-116.209,madis,subhourly,US
TT031,43.565,-116.209,madis,subhourly,US
TT032,34.653,-111.054,madis,subhourly,US
TT033,33.757,-108.545,madis,subhourly,US
TT034,33.679,-108.58,madis,subhourly,US
TT036,44.601,-121.901,madis,subhourly,US
TT040,43.565,-116.209,madis,subhourly,US
TT041,43.565,-116.209,madis,subhourly,US
TT046,37.773,-112.75,madis,subhourly,US
TT047,37.736,-112.702,madis,subhourly,US
TT048,37.814,-112.592,madis,subhourly,US
TT049,37.911,-112.621,madis,subhourly,US
TT050,34.508,-112.268,madis,subhourly,US
TT051,32.593,-109.85,madis,subhourly,US
TT052,32.634,-109.816,madis,subhourly,US
TT053,47.139,-114.857,madis,subhourly,US
TT054,48.894,-114.934,madis,subhourly,US
TT055,48.858,-114.826,madis,subhourly,US
TT056,48.765,-114.79,madis,subhourly,US
TT058,42.939,-109.788,madis,subhourly,US
TT060,37.655,-121.823,madis,subhourly,US
TT064,48.413,-114.737,madis,subhourly,US
TT065,37.764,-106.391,madis,subhourly,US
TT066,38.691,-86.003,madis,subhourly,US
TT074,34.501,-111.169,madis,subhourly,US
TT075,33.694,-108.428,madis,subhourly,US
TT076,37.53,-107.817,madis,subhourly,US
TT077,37.444,-108.008,madis,subhourly,US
TT078,37.618,-107.853,madis,subhourly,US
TT079,36.427,-105.106,madis,subhourly,US
TT080,36.4,-105.001,madis,subhourly,US
TT081,37.519,-108.141,madis,subhourly,US
TT082,37.595,-108.109,madis,subhourly,US
TT084,38.366,-112.036,madis,subhourly,US
TT086,42.33,-115.363,madis,subhourly,US
TT087,42.726,-115.61,madis,subhourly,US
TT088,32.807,-83.541,madis,subhourly,US
TT091,48.789,-119.248,madis,subhourly,US
TT092,47.406,-120.929,madis,subhourly,US
TT100,40.704,-123.56,madis,subhourly,US
TT103,43.565,-116.209,madis,subhourly,US
TT106,33.437,-107.91,madis,subhourly,US
TT109,41.701,-121.171,madis,subhourly,US
TT118,46.801,-115.537,madis,subhourly,US
TT119,37.168,-121.528,madis,subhourly,US
TT126,14.262,-170.687,madis,subhourly,US
TT127,14.276,-170.722,madis,subhourly,US
TT130,37.901,-79.106,madis,subhourly,US
TT132,46.521,-114.702,madis,subhourly,US
TT133,34.991,-76.98,madis,subhourly,US
TT136,40.248,-75.787,madis,subhourly,US
TT137,41.232,-75.624,madis,subhourly,US
TT138,40.935,-80.1,madis,subhourly,US
TT142,39.566,-120.161,madis,subhourly,US
TT143,37.768,-109.529,madis,subhourly,US
TT149,64.849,-147.574,madis,subhourly,US
TT156,39.124,-112.047,madis,subhourly,US
TT166,48.662,-114.828,madis,subhourly,US
TT167,32.663,-80.715,madis,subhourly,US
TT169,38.903,-111.513,madis,subhourly,US
TT171,48.669,-120.304,madis,subhourly,US
TT180,47.719,-96.206,madis,subhourly,US
TT181,37.999,-111.477,madis,subhourly,US
TT184,37.176,-117.788,madis,subhourly,US
TT185,38.802,-114.281,madis,subhourly,US
TT196,38.979,-105.353,madis,subhourly,US
TT197,43.667,-103.412,madis,subhourly,US
TT207,37.331,-112.383,madis,subhourly,US
TT208,37.039,-112.73,madis,subhourly,US
TT209,37.786,-120.072,madis,subhourly,US
TT211,38.132,-77.185,madis,subhourly,US
TT213,42.57,-122.135,madis,subhourly,US
TT215,38.096,-77.272,madis,subhourly,US
TT216,38.074,-77.323,madis,subhourly,US
TT220,47.835,-120.218,madis,subhourly,US
TT223,37.037,-112.525,madis,subhourly,US
TT230,48.043,-115.298,madis,subhourly,US
TT234,47.131,-113.42,madis,subhourly,US
TT236,46.7,-111.732,madis,subhourly,US
TT238,46.163,-113.141,madis,subhourly,US
TT240,44.533,-115.865,madis,subhourly,US
TT241,34.04,-80.739,madis,subhourly,US
TT244,43.599,-116.208,madis,subhourly,US
TT245,43.565,-116.209,madis,subhourly,US
TT246,47.733,-120.243,madis,subhourly,US
TT249,41.953,-120.789,madis,subhourly,US
TT255,40.407,-112.077,madis,subhourly,US
TT256,30.668,-104.147,madis,subhourly,US
TT259,43.79,-122.733,madis,subhourly,US
TT260,38.817,-120.47,madis,subhourly,US
TT268,41.688,-71.778,madis,subhourly,US
TT275,33.164,-86.091,madis,subhourly,US
TT276,33.893,-85.528,madis,subhourly,US
TT278,45.124,-88.372,madis,subhourly,US
TT281,38.19,-77.298,madis,subhourly,US
TT282,46.001,-113.667,madis,subhourly,US
TT283,38.676,-108.783,madis,subhourly,US
TT284,42.528,-76.777,madis,subhourly,US
TT286,42.32,-123.949,madis,subhourly,US
TT288,43.598,-116.382,madis,subhourly,US
TT289,43.634,-116.172,madis,subhourly,US
TT290,41.479,-112.271,madis,subhourly,US
TT292,47.994,-91.96,madis,subhourly,US
TT295,37.051,-111.964,madis,subhourly,US
TT296,37.038,-112.53,madis,subhourly,US
TT308,33.578,-117.065,madis,subhourly,US
TT309,38.926,-121.263,madis,subhourly,US
TT316,38.236,-120.121,madis,subhourly,US
TT321,34.779,-118.971,madis,subhourly,US
TT322,58.761,-136.437,madis,subhourly,US
TT325,43.572,-116.283,madis,subhourly,US
TT329,37.12,-106.819,madis,subhourly,US
TT331,30.975,-82.396,madis,subhourly,US
TT333,42.126,-122.708,madis,subhourly,US
TT334,31.011,-87.056,madis,subhourly,US
TT339,47.983,-114.356,madis,subhourly,US
TT340,41.605,-121.393,madis,subhourly,US
TT344,35.201,-83.836,madis,subhourly,US
TT345,35.17,-83.404,madis,subhourly,US
TT346,48.86,-116.12,madis,subhourly,US
TT350,46.566,-113.812,madis,subhourly,US
TT351,41.616,-87.22,madis,subhourly,US
TT353,45.177,-116.288,madis,subhourly,US
TT360,31.162,-86.703,madis,subhourly,US
TT361,42.208,-71.111,madis,subhourly,US
TT364,38.132,-106.897,madis,subhourly,US
TT365,20.795,-156.467,madis,subhourly,US
TT366,38.662,-121.387,madis,subhourly,US
TT367,34.468,-119.671,madis,subhourly,US
TT368,33.352,-116.881,madis,subhourly,US
TT369,34.457,-119.724,madis,subhourly,US
TT370,43.565,-116.209,madis,subhourly,US
TT371,32.744,-109.809,madis,subhourly,US
TT373,48.819,-117.318,madis,subhourly,US
TT374,44.524,-114.398,madis,subhourly,US
TT375,44.607,-114.545,madis,subhourly,US
TT376,46.411,-113.7,madis,subhourly,US
TT377,39.958,-111.213,madis,subhourly,US
TT378,45.555,-121.832,madis,subhourly,US
TT379,42.029,-124.014,madis,subhourly,US
TT380,42.344,-124.165,madis,subhourly,US
TT381,47.173,-112.369,madis,subhourly,US
TT382,43.565,-116.209,madis,subhourly,US
TT386,37.423,-80.567,madis,subhourly,US
TT387,38.439,-79.255,madis,subhourly,US
TT388,36.845,-81.334,madis,subhourly,US
TT390,40.387,-113.032,madis,subhourly,US
TT391,40.164,-112.891,madis,subhourly,US
TT392,40.116,-113.111,madis,subhourly,US
TT393,41.707,-70.564,madis,subhourly,US
TT394,39.204,-107.311,madis,subhourly,US
TT395,33.761,-87.796,madis,subhourly,US
TT396,32.414,-86.241,madis,subhourly,US
TT397,34.741,-86.435,madis,subhourly,US
TT398,31.701,-86.033,madis,subhourly,US
TT399,31.691,-87.761,madis,subhourly,US
TT400,32.913,-87.895,madis,subhourly,US
TT404,33.939,-86.389,madis,subhourly,US
TT409,35.605,-121.114,madis,subhourly,US
TT412,31.51,-110.356,madis,subhourly,US
TT414,34.58,-120.617,madis,subhourly,US
TT416,38.038,-119.169,madis,subhourly,US
TT417,34.171,-110.863,madis,subhourly,US
TT420,33.409,-83.381,madis,subhourly,US
TT421,34.469,-85.298,madis,subhourly,US
TT422,40.812,-105.037,madis,subhourly,US
TT423,41.707,-70.564,madis,subhourly,US
TT425,34.488,-120.236,madis,subhourly,US
TT426,34.681,-120.047,madis,subhourly,US
TT427,64.645,-146.445,madis,subhourly,US
TT428,64.743,-146.776,madis,subhourly,US
TT429,63.967,-145.763,madis,subhourly,US
TT430,43.565,-116.208,madis,subhourly,US
TT431,43.565,-116.208,madis,subhourly,US
TT432,43.565,-116.208,madis,subhourly,US
TT433,31.9,-109.988,madis,subhourly,US
TT434,43.565,-116.208,madis,subhourly,US
TT435,43.565,-116.208,madis,subhourly,US
TT436,43.565,-116.208,madis,subhourly,US
TT437,35.409,-111.917,madis,subhourly,US
TT438,35.362,-111.827,madis,subhourly,US
TT439,32.807,-83.541,madis,subhourly,US
TT441,37.89,-111.469,madis,subhourly,US
TT442,37.909,-111.117,madis,subhourly,US
TT443,37.077,-112.047,madis,subhourly,US
TT444,37.464,-112.05,madis,subhourly,US
TT445,41.866,-120.562,madis,subhourly,US
TT446,41.768,-121.23,madis,subhourly,US
TT447,36.649,-93.744,madis,subhourly,US
TT448,39.609,-81.167,madis,subhourly,US
TT449,33.617,-116.622,madis,subhourly,US
TT450,48.027,-120.313,madis,subhourly,US
TT453,46.158,-110.384,madis,subhourly,US
TT454,37.297,-111.14,madis,subhourly,US
TT455,44.961,-119.003,madis,subhourly,US
TT456,42.923,-103.71,madis,subhourly,US
TT462,40.459,-76.617,madis,subhourly,US
TT463,33.973,-116.912,madis,subhourly,US
TT464,36.183,-120.499,madis,subhourly,US
TT467,37.049,-122.074,madis,subhourly,US
TT469,35.326,-120.683,madis,subhourly,US
TT471,42.787,-122.286,madis,subhourly,US
TT472,44.814,-108.027,madis,subhourly,US
TT473,30.047,-98.201,madis,subhourly,US
TT474,29.939,-98.008,madis,subhourly,US
TT475,29.998,-97.82,madis,subhourly,US
TT476,30.219,-98.084,madis,subhourly,US
TT480,34.915,-120.251,madis,subhourly,US
TT481,48.744,-115.386,madis,subhourly,US
TT482,33.555,-111.615,madis,subhourly,US
TT483,44.161,-122.098,madis,subhourly,US
TT484,40.759,-119.198,madis,subhourly,US
TT485,30.244,-89.721,madis,subhourly,US
TT487,29.951,-97.371,madis,subhourly,US
TT488,30.048,-97.115,madis,subhourly,US
TT489,30.334,-97.324,madis,subhourly,US
TT490,36.679,-105.744,madis,subhourly,US
TT491,35.526,-107.321,madis,subhourly,US
TT492,42.923,-103.793,madis,subhourly,US
TT496,30.982,-83.176,madis,subhourly,US
TT497,40.905,-117.811,madis,subhourly,US
TT498,33.347,-82.212,madis,subhourly,US
TT505,58.722,-136.295,madis,subhourly,US
TTANN,47.473,-121.747,madis,subhourly,US
TTBA3,33.869,-111.313,madis,subhourly,US
TTCA3,33.955,-110.169,madis,subhourly,US
TTCT2,30.915,-98.291,madis,subhourly,US
TTEC1,41.342,-123.66,madis,subhourly,US
TTIW1,48.39,-124.74,madis,subhourly,US
TTKN8,46.16,-100.901,madis,subhourly,US
TTLA2,64.197,-147.919,madis,subhourly,US
TTLC1,37.346,-122.181,madis,subhourly,US
TTNBR,47.265,-122.547,madis,subhourly,US
TTRC2,37.374,-105.294,madis,subhourly,US
TTSC1,34.573,-119.016,madis,subhourly,US
TTSID,43.858,-114.707,madis,subhourly,US
TTSN5,33.239,-103.352,madis,subhourly,US
TTWIN,46.326,-119.316,madis,subhourly,US
TTYP1,41.647,-79.71,madis,subhourly,US
TUCA4,35.726,-91.2,madis,subhourly,US
TUCW1,46.506,-118.065,madis,subhourly,US
TUCW2,39.092,-79.659,madis,subhourly,US
TUDM7,37.937,-92.851,madis,subhourly,US
TUFO3,45.066,-119.491,madis,subhourly,US
TUGA2,60.78,-149.183,madis,subhourly,US
TUGAP,46.538,-120.472,madis,subhourly,US
TUJC1,34.235,-118.408,madis,subhourly,US
TUKN4,39.307,-74.821,madis,subhourly,US
TUKT2,29.585,-95.187,madis,subhourly,US
TUL1X,35.91,-95.792,madis,subhourly,US
TUL3X,35.91,-95.792,madis,subhourly,US
TULG1,34.906,-83.334,madis,subhourly,US
TULN7,35.325,-83.801,madis,subhourly,US
TULU1,39.237,-113.459,madis,subhourly,US
TUM42,47.628,-120.707,madis,subhourly,US
TUMC1,37.873,-119.35,madis,subhourly,US
TUMV2,39.008,-78.436,madis,subhourly,US
TUNC1,36.36,-118.288,madis,subhourly,US
TUNIN,46.517,-117.081,madis,subhourly,US
TUNN7,35.088,-83.739,madis,subhourly,US
TURI4,41.964,-95.973,madis,subhourly,US
TURN7,34.683,-78.582,madis,subhourly,US
TURT1,35.182,-84.438,madis,subhourly,US
TUSG1,34.951,-83.616,madis,subhourly,US
TUST2,34.379,-100.932,madis,subhourly,US
TVANT,46.945,-119.962,madis,subhourly,US
TVI ,30.9,-83.85,isd,hourly,US
TVLK2,38.016,-85.308,madis,subhourly,US
TVLT2,28.478,-96.863,madis,subhourly,US
TVRW2,39.048,-80.285,madis,subhourly,US
TVWU1,39.35,-113.385,madis,subhourly,US
TVYC1,39.979,-121.479,madis,subhourly,US
TVZO3,45.4,-117.39,madis,subhourly,US
TWALK,47.757,-122.894,madis,subhourly,US
TWARD,47.085,-119.006,madis,subhourly,US
TWATE,47.65,-120.147,madis,subhourly,US
TWAUC,48.728,-118.963,madis,subhourly,US
TWB01,30.089,-98.418,madis,subhourly,US
TWB02,30.15,-98.541,madis,subhourly,US
TWB03,30.1,-98.707,madis,subhourly,US
TWB04,30.019,-98.457,madis,subhourly,US
TWB05,30.111,-98.305,madis,subhourly,US
TWB06,29.802,-99.418,madis,subhourly,US
TWB07,29.858,-99.68,madis,subhourly,US
TWB08,30.232,-100.967,madis,subhourly,US
TWB09,29.438,-96.443,madis,subhourly,US
TWB10,29.658,-96.66,madis,subhourly,US
TWB11,29.763,-96.392,madis,subhourly,US
TWB12,29.539,-97.957,madis,subhourly,US
TWB13,29.512,-97.85,madis,subhourly,US
TWB14,29.602,-99.73,madis,subhourly,US
TWB15,29.534,-97.729,madis,subhourly,US
TWB16,29.475,-98.089,madis,subhourly,US
TWB17,28.495,-97.265,madis,subhourly,US
TWB18,28.618,-97.668,madis,subhourly,US
TWB19,28.113,-97.589,madis,subhourly,US
TWB20,29.651,-97.834,madis,subhourly,US
TWB21,29.547,-97.999,madis,subhourly,US
TWBI1,42.691,-115.195,madis,subhourly,US
TWCC1,35.221,-118.471,madis,subhourly,US
TWCG1,31.482,-83.584,madis,subhourly,US
TWCT2,31.037,-98.466,madis,subhourly,US
TWDC1,34.983,-120.317,madis,subhourly,US
TWDFC,41.865,-111.507,madis,subhourly,US
TWFI,42.546,-114.345,madis,subhourly,US
TWGA4,35.375,-90.468,madis,subhourly,US
TWHIT,46.638,-121.39,madis,subhourly,US
TWHK2,37.546,-83.395,madis,subhourly,US
TWIM8,45.613,-112.329,madis,subhourly,US
TWINT,47.729,-120.739,madis,subhourly,US
TWLM8,46.144,-114.506,madis,subhourly,US
TWLW4,44.609,-107.311,madis,subhourly,US
TWMC1,35.362,-119.823,madis,subhourly,US
TWMP1,40.871,-75.564,madis,subhourly,US
TWNW4,42.695,-108.896,madis,subhourly,US
TWOSD,33.194,-117.153,madis,subhourly,US
TWRN5,35.779,-106.266,madis,subhourly,US
TWRO3,46.011,-123.556,madis,subhourly,US
TWRW1,47.417,-117.528,madis,subhourly,US
TWSC1,39.458,-121.671,madis,subhourly,US
TWSM8,46.778,-105.299,madis,subhourly,US
TWTC2,39.082,-106.54,madis,subhourly,US
TWTCN,46.758,-118.309,madis,subhourly,US
TWWT2,30.955,-98.546,madis,subhourly,US
TXKT2,33.304,-94.161,madis,subhourly,US
TXPT2,29.678,-93.837,madis,subhourly,US
TYAA2,59.512,-135.344,madis,subhourly,US
TYACL,46.046,-120.567,madis,subhourly,US
TYBO3,42.691,-121.426,madis,subhourly,US
TYGA4,35.505,-90.38,madis,subhourly,US
TYGRC,41.885,-111.569,madis,subhourly,US
TYLA1,32.325,-86.785,madis,subhourly,US
TYLC2,39.223,-105.606,madis,subhourly,US
TYLO3,45.077,-117.551,madis,subhourly,US
TYNC1,36.648,-118.399,madis,subhourly,US
TYRC1,40.917,-122.817,madis,subhourly,US
TYRV2,37.636,-78.94,madis,subhourly,US
TYTM6,31.177,-90.279,madis,subhourly,US
TYTP1,41.065,-79.566,madis,subhourly,US
TZCT2,30.323,-99.906,madis,subhourly,US
TZILL,46.393,-120.241,madis,subhourly,US
TZWV2,37.126,-81.558,madis,subhourly,US
U33KX,56.115,-133.121,madis,subhourly,US
U35KX,55.915,-130.026,madis,subhourly,US
U38BX,36.439,-94.386,madis,subhourly,US
U49AX,36.513,-85.78,madis,subhourly,US
U54AX,36.521,-81.82,madis,subhourly,US
U56AX,36.347,-80.383,madis,subhourly,US
U59AX,36.353,-77.793,madis,subhourly,US
U67 ,40.3,-109.983,isd,hourly,US
UAPA4,34.252,-92.026,madis,subhourly,US
UAVA2,64.841,-147.813,madis,subhourly,US
UB7ST,39.981,-109.345,madis,subhourly,US
UBCC1,37.184,-118.939,madis,subhourly,US
UBCC2,37.639,-103.782,madis,subhourly,US
UBCSP,40.051,-110.02,madis,subhourly,US
UBCT2,30.584,-97.722,madis,subhourly,US
UBDNO,40.437,-109.305,madis,subhourly,US
UBHSP,40.144,-109.467,madis,subhourly,US
UBKW1,48.653,-121.693,madis,subhourly,US
UBMYT,40.217,-110.182,madis,subhourly,US
UBNO1,40.107,-83.799,madis,subhourly,US
UBORY,40.055,-109.688,madis,subhourly,US
UBRBM,39.869,-109.097,madis,subhourly,US
UBRDW,40.204,-109.352,madis,subhourly,US
UBRLY,40.087,-108.762,madis,subhourly,US
UBWHR,40.484,-109.906,madis,subhourly,US
UCAB,33.256,-116.404,madis,subhourly,US
UCAC,39.739,-123.631,madis,subhourly,US
UCAP1,41.917,-79.9,madis,subhourly,US
UCBC,36.071,-121.599,madis,subhourly,US
UCBM,38.314,-123.06,madis,subhourly,US
UCBO,37.382,-121.736,madis,subhourly,US
UCC ,36.95,-116.05,isd,hourly,US
UCC01,41.984,-112.912,madis,subhourly,US
UCC02,41.866,-112.725,madis,subhourly,US
UCC03,41.962,-112.491,madis,subhourly,US
UCC04,41.952,-111.869,madis,subhourly,US
UCC05,41.833,-111.088,madis,subhourly,US
UCC06,41.838,-111.334,madis,subhourly,US
UCC07,41.723,-112.154,madis,subhourly,US
UCC08,41.745,-111.789,madis,subhourly,US
UCC09,41.763,-111.879,madis,subhourly,US
UCC10,41.694,-111.833,madis,subhourly,US
UCC11,41.601,-111.567,madis,subhourly,US
UCC12,41.519,-112.174,madis,subhourly,US
UCC13,40.067,-111.629,madis,subhourly,US
UCC14,40.631,-111.92,madis,subhourly,US
UCC15,39.689,-111.877,madis,subhourly,US
UCC16,38.957,-112,madis,subhourly,US
UCC17,38.824,-112,madis,subhourly,US
UCC18,38.04,-112.711,madis,subhourly,US
UCC19,37.869,-112.422,madis,subhourly,US
UCC20,37.862,-112.881,madis,subhourly,US
UCC21,37.673,-113.137,madis,subhourly,US
UCC22,37.72,-113.702,madis,subhourly,US
UCC23,41.766,-111.811,madis,subhourly,US
UCC24,38.071,-109.567,madis,subhourly,US
UCC25,40.983,-109.728,madis,subhourly,US
UCC26,41.666,-111.891,madis,subhourly,US
UCC27,41.497,-111.819,madis,subhourly,US
UCC28,41.572,-111.855,madis,subhourly,US
UCC29,41.536,-111.806,madis,subhourly,US
UCC30,41.167,-112.05,madis,subhourly,US
UCC31,41.934,-111.42,madis,subhourly,US
UCC32,41.896,-112.048,madis,subhourly,US
UCC33,40.458,-109.562,madis,subhourly,US
UCC34,40.373,-110.209,madis,subhourly,US
UCC35,38.383,-111.636,madis,subhourly,US
UCC36,36.691,-107.914,madis,subhourly,US
UCC37,42.54,-110.195,madis,subhourly,US
UCC38,39.059,-110.091,madis,subhourly,US
UCC39,39.094,-108.37,madis,subhourly,US
UCC40,40.36,-111.978,madis,subhourly,US
UCC41,40.313,-112.031,madis,subhourly,US
UCCC1,34.124,-116.409,madis,subhourly,US
UCCT2,29.586,-95.386,madis,subhourly,US
UCDE,33.648,-116.378,madis,subhourly,US
UCEA2,65.099,-145.082,madis,subhourly,US
UCEL,32.892,-117.092,madis,subhourly,US
UCHA,36.386,-121.55,madis,subhourly,US
UCHA2,64.903,-146.357,madis,subhourly,US
UCI01,33.849,-117.703,madis,subhourly,US
UCI02,33.774,-117.752,madis,subhourly,US
UCI03,33.742,-117.704,madis,subhourly,US
UCI04,33.633,-117.769,madis,subhourly,US
UCI05,33.576,-117.793,madis,subhourly,US
UCI07,33.574,-117.839,madis,subhourly,US
UCJA,33.809,-116.775,madis,subhourly,US
UCJP,38.268,-121.828,madis,subhourly,US
UCL01,41.786,-111.781,madis,subhourly,US
UCL02,41.55,-111.85,madis,subhourly,US
UCL03,41.786,-111.773,madis,subhourly,US
UCL04,41.872,-111.809,madis,subhourly,US
UCL05,38.499,-113.576,madis,subhourly,US
UCL06,41.906,-111.554,madis,subhourly,US
UCL07,41.866,-111.512,madis,subhourly,US
UCL12,39.451,-112.638,madis,subhourly,US
UCL13,40.36,-110.181,madis,subhourly,US
UCL14,42.434,-112.129,madis,subhourly,US
UCL15,42.107,-111.894,madis,subhourly,US
UCL16,42.255,-111.339,madis,subhourly,US
UCL17,39.22,-111.07,madis,subhourly,US
UCL18,39.421,-110.838,madis,subhourly,US
UCL19,39.307,-110.977,madis,subhourly,US
UCL20,39.076,-111.154,madis,subhourly,US
UCL21,40.181,-109.668,madis,subhourly,US
UCL22,40.162,-110.107,madis,subhourly,US
UCL23,40.531,-112.757,madis,subhourly,US
UCL24,39.543,-111.482,madis,subhourly,US
UCL25,38.744,-112.084,madis,subhourly,US
UCL26,38.524,-109.484,madis,subhourly,US
UCL27,37.63,-112.043,madis,subhourly,US
UCL28,39.228,-112.099,madis,subhourly,US
UCL29,42.078,-110.956,madis,subhourly,US
UCL30,41.197,-111.029,madis,subhourly,US
UCMO,33.805,-117.256,madis,subhourly,US
UCNC2,37.061,-102.63,madis,subhourly,US
UCRC1,33.967,-117.35,madis,subhourly,US
UCRM,35.534,-121.083,madis,subhourly,US
UCSC,33.999,-119.686,madis,subhourly,US
UCSE,34.694,-120.042,madis,subhourly,US
UCSH,37.614,-118.833,madis,subhourly,US
UCSR,34.095,-118.657,madis,subhourly,US
UCTC1,34.432,-119.845,madis,subhourly,US
UCTP1,41.92,-79.9,madis,subhourly,US
UCYL,36.949,-122.066,madis,subhourly,US
UDCT2,31.798,-105.581,madis,subhourly,US
UDDU1,41.864,-111.506,madis,subhourly,US
UDET2,29.246,-99.674,madis,subhourly,US
UDGW4,44.103,-109.143,madis,subhourly,US
UDWC1,40.721,-123.496,madis,subhourly,US
UDX ,44.133,-102.833,isd,hourly,US
UEHN1,41.713,-96.522,madis,subhourly,US
UFD08,40.943,-112.562,madis,subhourly,US
UFD09,40.925,-112.159,madis,subhourly,US
UFGC2,37.447,-105.425,madis,subhourly,US
UGGC1,32.54,-117.087,madis,subhourly,US
UHGM6,33.777,-90,madis,subhourly,US
UHLC1,35.887,-118.648,madis,subhourly,US
UHRO1,40.406,-81.344,madis,subhourly,US
UHSA2,61.121,-149.722,madis,subhourly,US
UINI2,39.932,-91.415,madis,subhourly,US
UINU1,40.285,-109.862,madis,subhourly,US
UJCV2,37.456,-80.32,madis,subhourly,US
UJVU1,39.416,-111.249,madis,subhourly,US
UKALF,39.429,-111.37,madis,subhourly,US
UKIO3,45.135,-118.936,madis,subhourly,US
ULBC1,38.342,-120.365,madis,subhourly,US
ULMM8,47.435,-111.388,madis,subhourly,US
ULMT,47.403,-111.507,madis,subhourly,US
ULSA3,34.571,-113.067,madis,subhourly,US
ULUH1,20.649,-156.398,madis,subhourly,US
UMAO3,45.903,-119.326,madis,subhourly,US
UMBT2,34.849,-102.176,madis,subhourly,US
UMGC1,34.154,-116.692,madis,subhourly,US
UMGM5,44.99,-93.18,madis,subhourly,US
UMHM,46.447,-109.94,madis,subhourly,US
UMHM8,46.447,-109.94,madis,subhourly,US
UMKC1,38.518,-121.369,madis,subhourly,US
UMLF1,28.919,-81.632,madis,subhourly,US
UMMO3,45.795,-119.323,madis,subhourly,US
UMNC1,37.158,-121.904,madis,subhourly,US
UMTA2,69.37,-152.136,madis,subhourly,US
UMTO3,45.917,-119.567,madis,subhourly,US
UMTW1,46.863,-120.479,madis,subhourly,US
UNCA2,65.367,-146.592,madis,subhourly,US
UNCC3,41.514,-73.067,madis,subhourly,US
UNCK2,38.587,-83.921,madis,subhourly,US
UNDC1,38.038,-119.169,madis,subhourly,US
UNFN7,35.367,-79.867,madis,subhourly,US
UNGO2,34.027,-95.75,madis,subhourly,US
UNGW2,39.442,-78.231,madis,subhourly,US
UNIG1,32.153,-84.906,madis,subhourly,US
UNIO1,40.783,-80.929,madis,subhourly,US
UNIP1,40.946,-77.905,madis,subhourly,US
UNIT1,36.201,-82.389,madis,subhourly,US
UNKN,60.3,-146.6,madis,subhourly,US
UNLA2,53.88,-166.537,madis,subhourly,US
UNNM7,38.444,-90.996,madis,subhourly,US
UNNW2,37.591,-80.528,madis,subhourly,US
UNON5,31.948,-106.666,madis,subhourly,US
UNRA2,59.684,-150.703,madis,subhourly,US
UNRC2,38.241,-107.76,madis,subhourly,US
UNVT1,35.621,-86.586,madis,subhourly,US
UNVV1,43.79,-72.255,madis,subhourly,US
