station_id,lat,lon,source,reports,country
COYSD,33.258,-116.585,madis,subhourly,US
COZI1,44.288,-115.655,madis,subhourly,US
CPAA2,60.204,-154.702,madis,subhourly,US
CPAT1,35.637,-83.493,madis,subhourly,US
CPBC1,34.451,-119.653,madis,subhourly,US
CPC04,45.732,-119.058,madis,subhourly,US
CPC07,45.483,-120.719,madis,subhourly,US
CPC09,45.719,-118.622,madis,subhourly,US
CPC10,45.721,-119.047,madis,subhourly,US
CPCM8,47.082,-112.73,madis,subhourly,US
CPEC2,40.82,-104.71,madis,subhourly,US
CPFC1,34.4,-119.516,madis,subhourly,US
CPFN7,34.404,-78.294,madis,subhourly,US
CPFO3,44.157,-118.471,madis,subhourly,US
CPGM7,37.302,-89.518,madis,subhourly,US
CPGT2,30.518,-95.095,madis,subhourly,US
CPKA2,65.192,-147.5,madis,subhourly,US
CPKF1,28.066,-82.566,madis,subhourly,US
CPKW4,44.403,-107.061,madis,subhourly,US
CPLC1,38.693,-120.042,madis,subhourly,US
CPLO2,36.887,-95.953,madis,subhourly,US
CPMC2,39.49,-106.171,madis,subhourly,US
CPMG1,34.609,-84.131,madis,subhourly,US
CPNW2,39.471,-78.344,madis,subhourly,US
CPOW1,47.989,-120.298,madis,subhourly,US
CPOW2,39.285,-78.393,madis,subhourly,US
CPPC1,37.998,-121.856,madis,subhourly,US
CPPC2,38.664,-105.278,madis,subhourly,US
CPPN5,32.927,-103.857,madis,subhourly,US
CPPT2,33.475,-95.588,madis,subhourly,US
CPPW1,47.463,-121.211,madis,subhourly,US
CPRC1,38.862,-121.219,madis,subhourly,US
CPRT1,35.004,-84.387,madis,subhourly,US
CPRV2,36.883,-82.617,madis,subhourly,US
CPRW4,42.854,-106.331,madis,subhourly,US
CPSC2,38.418,-108.382,madis,subhourly,US
CPSW2,38.084,-80.12,madis,subhourly,US
CPTC2,38.459,-109.047,madis,subhourly,US
CPTR1,41.717,-71.343,madis,subhourly,US
CPTT2,29.772,-95.147,madis,subhourly,US
CPTW4,42.774,-106.175,madis,subhourly,US
CPVP1,41.593,-79.836,madis,subhourly,US
CPWA3,34.804,-112.878,madis,subhourly,US
CPWC1,34.589,-118.657,madis,subhourly,US
CPWT2,30.031,-95.33,madis,subhourly,US
CPXC1,35.17,-120.74,madis,subhourly,US
CQ147,37.739,-122.39,madis,subhourly,US
CQ180,39.327,-120.185,madis,subhourly,US
CQ184,39.94,-120.944,madis,subhourly,US
CQ185,40.31,-121.228,madis,subhourly,US
CQ236,39.813,-120.471,madis,subhourly,US
CQ245,36.326,-117.955,madis,subhourly,US
CQ246,36.458,-117.852,madis,subhourly,US
CQ247,36.608,-118.048,madis,subhourly,US
CQ248,36.543,-117.942,madis,subhourly,US
CQ249,36.362,-118.011,madis,subhourly,US
CQ250,36.368,-117.898,madis,subhourly,US
CQ251,38.07,-118.948,madis,subhourly,US
CQ252,36.266,-117.992,madis,subhourly,US
CQ253,36.488,-117.871,madis,subhourly,US
CQ254,37.646,-118.967,madis,subhourly,US
CQ255,37.366,-118.35,madis,subhourly,US
CQAG,54.4,-169,madis,subhourly,US
CQBM5,47.26,-91.845,madis,subhourly,US
CQCO,56.5,-179.8,madis,subhourly,US
CQCT2,32.32,-99.476,madis,subhourly,US
CQCX,53.9,-173.6,madis,subhourly,US
CQEE,33.1,-126.1,madis,subhourly,US
CQFO3,42.577,-121.894,madis,subhourly,US
CQFS,48,-163.5,madis,subhourly,US
CQIF2,36.7,131.8,madis,subhourly,US
CQIN9,39.3,-176.3,madis,subhourly,US
CQIX5,16.2,-84,madis,subhourly,US
CQRM5,46.896,-92.515,madis,subhourly,US
CQYN,53.9,-161.1,madis,subhourly,US
CQZW,51.2,-141.6,madis,subhourly,US
CRA,43.429,-113.538,madis,subhourly,US
CRAC1,34.318,-117.842,madis,subhourly,US
CRAC2,40.493,-107.522,madis,subhourly,US
CRAF1,29.106,-81.629,madis,subhourly,US
CRAI1,46.563,-115.288,madis,subhourly,US
CRAI4,41.677,-91.599,madis,subhourly,US
CRAK2,36.824,-84.19,madis,subhourly,US
CRAW2,38.291,-80.641,madis,subhourly,US
CRBC1,38.732,-121.279,madis,subhourly,US
CRBI1,44.437,-111.993,madis,subhourly,US
CRBW2,37.478,-81.128,madis,subhourly,US
CRCA3,35.804,-112.426,madis,subhourly,US
CRCC1,38.306,-121.424,madis,subhourly,US
CRCF1,28.047,-82.759,madis,subhourly,US
CRCO1,39.601,-82.955,madis,subhourly,US
CRCO3,44.239,-120.863,madis,subhourly,US
CRCP1,40.714,-79.508,madis,subhourly,US
CRDN5,33.54,-103.24,madis,subhourly,US
CRDN7,36.024,-78.689,madis,subhourly,US
CRDO1,40.583,-82.989,madis,subhourly,US
CRDU1,41.176,-111.406,madis,subhourly,US
CREA2,62.124,-141.847,madis,subhourly,US
CREI2,41.449,-87.622,madis,subhourly,US
CREK2,38.247,-84.055,madis,subhourly,US
CREW2,38.951,-81.257,madis,subhourly,US
CRFT2,31.556,-97.356,madis,subhourly,US
CRFW2,39.677,-79.772,madis,subhourly,US
CRGA2,55.474,-133.138,madis,subhourly,US
CRGA4,36.402,-90.541,madis,subhourly,US
CRGC1,39.939,-122.17,madis,subhourly,US
CRHA2,64.86,-146.803,madis,subhourly,US
CRHC1,34.356,-117.876,madis,subhourly,US
CRIC1,33.426,-117.569,madis,subhourly,US
CRIK2,38.769,-84.602,madis,subhourly,US
CRISD,33.474,-117.551,madis,subhourly,US
CRIV2,38.061,-79.4,madis,subhourly,US
CRIWW,38.479,-122.793,madis,subhourly,US
CRJC1,33.804,-118.312,madis,subhourly,US
CRKA4,35.468,-93.463,madis,subhourly,US
CRKG1,33.965,-84.265,madis,subhourly,US
CRKI1,46.033,-116.898,madis,subhourly,US
CRKK2,38.383,-83.034,madis,subhourly,US
CRKO1,39.635,-81.504,madis,subhourly,US
CRKT1,36.169,-83.498,madis,subhourly,US
CRKU1,39.893,-111.252,madis,subhourly,US
CRLC1,36.777,-118.426,madis,subhourly,US
CRLC3,42.006,-73.037,madis,subhourly,US
CRLF1,25.975,-80.67,madis,subhourly,US
CRLK2,38.12,-83.534,madis,subhourly,US
CRLL1,30.241,-92.348,madis,subhourly,US
CRLM5,46.669,-94.111,madis,subhourly,US
CRLN7,35.163,-80.88,madis,subhourly,US
CRLNV,39.23,-120.003,madis,subhourly,US
CRLO2,35.012,-99.903,madis,subhourly,US
CRMI1,43.465,-113.558,madis,subhourly,US
CRMN7,35.116,-80.914,madis,subhourly,US
CRMW2,38.456,-80.955,madis,subhourly,US
CRN,38.29,-111.262,madis,subhourly,US
CRNM4,45.909,-87.214,madis,subhourly,US
CRNO1,39.603,-82.089,madis,subhourly,US
CRNV2,37.805,-79.324,madis,subhourly,US
CRNW2,38.737,-81.849,madis,subhourly,US
CROM4,43.435,-85.665,madis,subhourly,US
CROV2,38.1,-78.785,madis,subhourly,US
CROW2,39.208,-81.159,madis,subhourly,US
CRPC1,38.593,-121.369,madis,subhourly,US
CRPO3,44.176,-120.588,madis,subhourly,US
CRRC2,37.721,-107.266,madis,subhourly,US
CRRI4,42.482,-95.793,madis,subhourly,US
CRRM7,37.181,-91.118,madis,subhourly,US
CRRM8,44.962,-111.294,madis,subhourly,US
CRRS2,43.778,-103.641,madis,subhourly,US
CRRV2,38.935,-77.253,madis,subhourly,US
CRSC2,40.167,-107.058,madis,subhourly,US
CRSM,48.188,-114.128,madis,subhourly,US
CRSN2,40.46,-115.85,madis,subhourly,US
CRSN7,35.418,-82.812,madis,subhourly,US
CRSO1,40.842,-80.669,madis,subhourly,US
CRSO3,44.367,-121.139,madis,subhourly,US
CRSW4,43.421,-104.131,madis,subhourly,US
CRTA3,34.496,-111.574,madis,subhourly,US
CRTI1,43.462,-113.556,madis,subhourly,US
CRTNV,38.818,-115.283,madis,subhourly,US
CRTP1,41.103,-79.285,madis,subhourly,US
CRTV2,36.631,-80.146,madis,subhourly,US
CRUA2,69.361,-152.122,madis,subhourly,US
CRVA2,60.558,-145.753,madis,subhourly,US
CRVC1,37.737,-118.997,madis,subhourly,US
CRVC2,37.887,-107.206,madis,subhourly,US
CRVI4,41.725,-91.528,madis,subhourly,US
CRVN7,35.874,-82.319,madis,subhourly,US
CRVO,44.634,-123.19,madis,subhourly,US
CRVSD,32.784,-116.723,madis,subhourly,US
CRWC1,41.893,-120.752,madis,subhourly,US
CRWC2,39.352,-107.095,madis,subhourly,US
CRWI3,40.049,-86.899,madis,subhourly,US
CRWM7,36.649,-93.744,madis,subhourly,US
CRWO2,35.708,-99.905,madis,subhourly,US
CRWP1,40.954,-78.528,madis,subhourly,US
CRWV2,37.321,-80.272,madis,subhourly,US
CRWW1,46.661,-122.983,madis,subhourly,US
CRWW4,41.229,-105.383,madis,subhourly,US
CRXC1,34.109,-118.936,madis,subhourly,US
CRYM8,46.789,-109.512,madis,subhourly,US
CRYN6,41.917,-74.6,madis,subhourly,US
CRYP1,41.91,-79.646,madis,subhourly,US
CRYV2,36.888,-76.338,madis,subhourly,US
CRZA3,33.986,-110.28,madis,subhourly,US
CRZC1,41.976,-123.612,madis,subhourly,US
CSBFL,35.347,-119.1,madis,subhourly,US
CSBN8,48.968,-104.002,madis,subhourly,US
CSBOR,43.4,-124.25,madis,subhourly,US
CSBT2,29.271,-103.301,madis,subhourly,US
CSBU1,39.527,-111.851,madis,subhourly,US
CSBV2,38.135,-79.865,madis,subhourly,US
CSCC2,37.651,-107.806,madis,subhourly,US
CSCI1,44.525,-116.05,madis,subhourly,US
CSCM5,45.531,-93.752,madis,subhourly,US
CSCO1,40.104,-82.884,madis,subhourly,US
CSCO3,42.533,-122.177,madis,subhourly,US
CSCP1,41.171,-79.241,madis,subhourly,US
CSCS1,33.861,-79.041,madis,subhourly,US
CSDC1,34.155,-119.073,madis,subhourly,US
CSEA1,34.794,-86.519,madis,subhourly,US
CSFO3,44.355,-120.134,madis,subhourly,US
CSFS1,34.663,-80.212,madis,subhourly,US
CSFT1,36.369,-83.899,madis,subhourly,US
CSGP1,41.833,-80.217,madis,subhourly,US
CSHL1,32.013,-93.353,madis,subhourly,US
CSHO1,40.248,-81.873,madis,subhourly,US
CSHW1,47.424,-123.22,madis,subhourly,US
CSJC1,34.438,-118.612,madis,subhourly,US
CSLC1,35.32,-120.721,madis,subhourly,US
CSMC1,35.942,-120.328,madis,subhourly,US
CSMN5,32.779,-105.82,madis,subhourly,US
CSNA2,62.078,-142.054,madis,subhourly,US
CSP ,58.2,-136.633,isd,hourly,US
CSPA2,58.21,-136.63,madis,subhourly,US
CSPC1,33.446,-117.419,madis,subhourly,US
CSPS2,43.729,-103.354,madis,subhourly,US
CSPU1,37.973,-111.834,madis,subhourly,US
CSPW4,42.734,-106.319,madis,subhourly,US
CSQG1,34.619,-83.529,madis,subhourly,US
CSRM5,46.095,-96.411,madis,subhourly,US
CSRW2,39.634,-80.323,madis,subhourly,US
CSSC1,39.326,-120.368,madis,subhourly,US
CSSK1,38.027,-96.639,madis,subhourly,US
CSSL,39.326,-120.367,madis,subhourly,US
CSTC1,39.872,-121.769,madis,subhourly,US
CSTM3,42.288,-72.865,madis,subhourly,US
CSTM7,38.646,-90.527,madis,subhourly,US
CSTO3,43.59,-122.06,madis,subhourly,US
CSTSD,32.812,-116.853,madis,subhourly,US
CSTW2,40.617,-80.546,madis,subhourly,US
CSU01,40.155,-103.142,madis,subhourly,US
CSU02,40.569,-104.72,madis,subhourly,US
CSU03,38.217,-104.341,madis,subhourly,US
CSU04,38.832,-106.129,madis,subhourly,US
CSU05,40.595,-104.319,madis,subhourly,US
CSU06,38.328,-108.855,madis,subhourly,US
CSU07,39.265,-102.109,madis,subhourly,US
CSU08,39.337,-102.196,madis,subhourly,US
CSU09,39.362,-107.208,madis,subhourly,US
CSU10,40.826,-105.267,madis,subhourly,US
CSU11,38.432,-105.178,madis,subhourly,US
CSU12,40.866,-106.336,madis,subhourly,US
CSU13,37.707,-106.144,madis,subhourly,US
CSU14,37.829,-106.038,madis,subhourly,US
CSU15,37.225,-108.673,madis,subhourly,US
CSU16,37.727,-108.954,madis,subhourly,US
CSU17,38.84,-107.973,madis,subhourly,US
CSU18,39.18,-108.7,madis,subhourly,US
CSU19,40.595,-105.137,madis,subhourly,US
CSU20,40.653,-105,madis,subhourly,US
CSU21,40.001,-104.849,madis,subhourly,US
CSU22,38.135,-104.032,madis,subhourly,US
CSU23,40.449,-104.638,madis,subhourly,US
CSU24,38.613,-106.901,madis,subhourly,US
CSU25,40.546,-106.388,madis,subhourly,US
CSU26,38.07,-102.09,madis,subhourly,US
CSU27,38.136,-102.241,madis,subhourly,US
CSU28,37.289,-104.313,madis,subhourly,US
CSU29,38.792,-107.792,madis,subhourly,US
CSU30,40.672,-102.647,madis,subhourly,US
CSU31,40.499,-107.181,madis,subhourly,US
CSU32,40.491,-102.089,madis,subhourly,US
CSU33,39.731,-102.302,madis,subhourly,US
CSU34,39.655,-102.621,madis,subhourly,US
CSU35,40.377,-104.532,madis,subhourly,US
CSU36,40.363,-104.478,madis,subhourly,US
CSU37,37.981,-102.596,madis,subhourly,US
CSU38,37.98,-102.713,madis,subhourly,US
CSU39,38.154,-102.599,madis,subhourly,US
CSU40,40.613,-106.3,madis,subhourly,US
CSU41,40.476,-104.707,madis,subhourly,US
CSU42,37.255,-105.964,madis,subhourly,US
CSU43,38.078,-103.366,madis,subhourly,US
CSU44,40.335,-104.63,madis,subhourly,US
CSU45,38.148,-102.859,madis,subhourly,US
CSU46,37.322,-108.338,madis,subhourly,US
CSU47,38.547,-107.914,madis,subhourly,US
CSU48,39.042,-108.46,madis,subhourly,US
CSU49,38.635,-107.964,madis,subhourly,US
CSU50,40.425,-102.475,madis,subhourly,US
CSU51,40.313,-104.727,madis,subhourly,US
CSU52,38.412,-104.998,madis,subhourly,US
CSU53,38.039,-103.695,madis,subhourly,US
CSU54,37.142,-105.611,madis,subhourly,US
CSU55,39.119,-102.925,madis,subhourly,US
CSU56,38.544,-102.503,madis,subhourly,US
CSU57,39.567,-107.693,madis,subhourly,US
CSU58,39.299,-102.522,madis,subhourly,US
CSU59,37.189,-108.935,madis,subhourly,US
CSU60,38.15,-105.499,madis,subhourly,US
CSU61,40.139,-106.415,madis,subhourly,US
CSU63,40.219,-102.265,madis,subhourly,US
CSU64,37.529,-108.724,madis,subhourly,US
CSU65,37.248,-108.687,madis,subhourly,US
CSU66,40.15,-102.724,madis,subhourly,US
CSU67,40.768,-103.045,madis,subhourly,US
CSU68,39.354,-105.811,madis,subhourly,US
CSU70,38.734,-108.118,madis,subhourly,US
CSU71,39.786,-103.798,madis,subhourly,US
CSU73,39.55,-104.811,madis,subhourly,US
CSU74,38.571,-106.043,madis,subhourly,US
CSU75,40.463,-103.028,madis,subhourly,US
CSU76,37.161,-102.122,madis,subhourly,US
CSU78,38.223,-104.461,madis,subhourly,US
CSU79,39.634,-106.947,madis,subhourly,US
CSU80,39.199,-107.99,madis,subhourly,US
CSVC1,34.408,-119.371,madis,subhourly,US
CSVT1,36.014,-85.134,madis,subhourly,US
CSWC1,36.411,-118.809,madis,subhourly,US
CSXC1,41.831,-123.876,madis,subhourly,US
CSZC1,41.781,-120.319,madis,subhourly,US
CT41,41.217,-73.255,madis,subhourly,US
CT71,41.708,-72.802,madis,subhourly,US
CTAG,48.65,-93.433,isd,hourly,US
CTAND,41.791,-122.589,madis,subhourly,US
CTANT,40.885,-122.383,madis,subhourly,US
CTBBS,41.355,-122.353,madis,subhourly,US
CTBOG,40.586,-121.088,madis,subhourly,US
CTBSN,40.654,-122.755,madis,subhourly,US
CTCS2,44.014,-103.83,madis,subhourly,US
CTCT2,33.499,-95.051,madis,subhourly,US
CTDUN,41.21,-122.275,madis,subhourly,US
CTDWW,38.408,-121.523,madis,subhourly,US
CTEC2,38.7,-106.368,madis,subhourly,US
CTENV,40.723,-116.017,madis,subhourly,US
CTFN7,35.578,-83.261,madis,subhourly,US
CTFO1,39.329,-83.476,madis,subhourly,US
CTFPE,40.39,-120.79,madis,subhourly,US
CTFW2,40.093,-80.602,madis,subhourly,US
CTFYP,40.36,-120.865,madis,subhourly,US
CTGC1,33.372,-117.36,madis,subhourly,US
CTHAT,40.852,-121.762,madis,subhourly,US
CTHG1,34.577,-83.636,madis,subhourly,US
CTHLT,41.993,-122.609,madis,subhourly,US
CTHN6,42.035,-74.899,madis,subhourly,US
CTHRN,41.91,-122.568,madis,subhourly,US
CTHS1,35.107,-81.043,madis,subhourly,US
CTHT1,36.248,-85.955,madis,subhourly,US
CTIN7,35.018,-76.314,madis,subhourly,US
CTKF1,28.616,-80.693,madis,subhourly,US
CTKR,49.78,-94.38,madis,subhourly,US
CTKT2,29.877,-100.897,madis,subhourly,US
CTKW1,46.479,-123.297,madis,subhourly,US
CTLN2,38.904,-114.814,madis,subhourly,US
CTLP1,40.116,-78.813,madis,subhourly,US
CTLV2,38.223,-79.815,madis,subhourly,US
CTMM4,46.334,-86.92,madis,subhourly,US
CTMSD,32.783,-116.55,madis,subhourly,US
CTMU1,37.984,-112.639,madis,subhourly,US
CTMV2,37.298,-81.909,madis,subhourly,US
CTNC1,40.317,-122.881,madis,subhourly,US
CTNK2,36.8,-87.967,madis,subhourly,US
CTNM2,39.24,-76.848,madis,subhourly,US
CTNN7,35.549,-82.829,madis,subhourly,US
CTNT2,31.786,-97.568,madis,subhourly,US
CTOC1,36.991,-121.805,madis,subhourly,US
CTOMS,40.739,-122.98,madis,subhourly,US
CTPC2,39.419,-105.084,madis,subhourly,US
CTRC1,37.467,-121.876,madis,subhourly,US
CTRG1,34.614,-84.671,madis,subhourly,US
CTSK2,37.111,-83.249,madis,subhourly,US
CTSNS,41.269,-122.211,madis,subhourly,US
CTSP1,40.581,-78.605,madis,subhourly,US
CTSPG,39.912,-120.812,madis,subhourly,US
CTTS1,34.018,-81.085,madis,subhourly,US
CTTS2,43.969,-101.767,madis,subhourly,US
CTUA2,61.274,-142.621,madis,subhourly,US
CTVG1,34.143,-84.839,madis,subhourly,US
CTVI2,39.703,-88.386,madis,subhourly,US
CTVOL,40.942,-122.427,madis,subhourly,US
CTWDA,41.473,-122.453,madis,subhourly,US
CTWED,41.429,-122.399,madis,subhourly,US
CTWG1,33.996,-85.155,madis,subhourly,US
CTWN4,39.813,-74.425,madis,subhourly,US
CTWNV,40.72,-116.011,madis,subhourly,US
CTWP1,40.904,-75.679,madis,subhourly,US
CTZC2,37.344,-108.593,madis,subhourly,US
CTZM7,39.525,-91.644,madis,subhourly,US
CUCN7,35.289,-83.181,madis,subhourly,US
CUCU1,40.357,-111.09,madis,subhourly,US
CUET2,29.09,-97.329,madis,subhourly,US
CUGW1,46.056,-122.293,madis,subhourly,US
CUHC2,37.092,-104.919,madis,subhourly,US
CULC2,37.209,-105.2,madis,subhourly,US
CULP1,41.105,-79.392,madis,subhourly,US
CUMC1,38.028,-122.197,madis,subhourly,US
CUMC2,37.019,-106.452,madis,subhourly,US
CUMM6,34.304,-88.371,madis,subhourly,US
CUMW1,47.277,-121.671,madis,subhourly,US
CUPC1,34.239,-119.008,madis,subhourly,US
CUSL1,30.494,-90.169,madis,subhourly,US
CUSN7,35.142,-83.294,madis,subhourly,US
CUTM5,47.536,-94.054,madis,subhourly,US
CUTX,62.406,-150.262,madis,subhourly,US
CUUC1,34.806,-119.014,madis,subhourly,US
CUWN7,35.316,-83.207,madis,subhourly,US
CUXA1,34.195,-86.796,madis,subhourly,US
CVAC1,32.64,-117.086,madis,subhourly,US
CVAI1,43.96,-115.844,madis,subhourly,US
CVAN2,40.868,-114.969,madis,subhourly,US
CVBC1,37.38,-120.077,madis,subhourly,US
CVCC1,37.68,-122.079,madis,subhourly,US
CVD ,30.35,-87.267,isd,hourly,US
CVDA3,34.614,-111.843,madis,subhourly,US
CVDN2,38.993,-119.804,madis,subhourly,US
CVDO1,39.137,-84.608,madis,subhourly,US
CVEC1,34.194,-116.913,madis,subhourly,US
CVEL1,30.476,-90.089,madis,subhourly,US
CVET2,33.526,-96.807,madis,subhourly,US
CVEW2,38.567,-79.425,madis,subhourly,US
CVFO3,42.779,-123.735,madis,subhourly,US
CVGT2,32.181,-97.256,madis,subhourly,US
CVL ,40.917,-111.4,isd,hourly,US
CVLG1,34.163,-84.728,madis,subhourly,US
CVLM2,38.652,-76.816,madis,subhourly,US
CVLO1,39.621,-84.14,madis,subhourly,US
CVLO2,36.395,-95.811,madis,subhourly,US
CVMC1,36.2,-118.268,madis,subhourly,US
CVMN2,39.156,-114.557,madis,subhourly,US
CVMV2,37.043,-80.981,madis,subhourly,US
CVMW2,38.929,-79.202,madis,subhourly,US
CVNC1,34.194,-116.914,madis,subhourly,US
CVPW2,39.013,-79.474,madis,subhourly,US
CVRC1,34.005,-118.413,madis,subhourly,US
CVRNV,39.048,-119.947,madis,subhourly,US
CVSC1,38.198,-120.367,madis,subhourly,US
CVSO1,39.276,-84.444,madis,subhourly,US
CVSO3,44.418,-123.326,madis,subhourly,US
CVTM2,39.061,-76.928,madis,subhourly,US
CVTO1,39.188,-84.655,madis,subhourly,US
CVTS,48.767,-123.117,isd,hourly,US
CVWO2,35.425,-96.196,madis,subhourly,US
CVXSD,32.602,-117.058,madis,subhourly,US
CVYU1,37.661,-112.741,madis,subhourly,US
CWAQ,49.05,-105.483,isd,hourly,US
CWBF1,27.978,-82.832,madis,subhourly,US
CWCI,47.333,-85.833,isd,hourly,US
CWCT2,30.078,-97.555,madis,subhourly,US
CWD,36.484,-118.178,madis,subhourly,US
CWDC1,37.482,-118.176,madis,subhourly,US
CWDI2,39.23,-88.842,madis,subhourly,US
CWDSD,32.701,-116.368,madis,subhourly,US
CWDW2,37.403,-81.648,madis,subhourly,US
CWEN7,35.27,-83.37,madis,subhourly,US
CWENV,40.723,-116.016,madis,subhourly,US
CWEZ,48.783,-123.033,isd,hourly,US
CWFO3,43.841,-118.952,madis,subhourly,US
CWGH,44.417,-75.85,isd,hourly,US
CWGN,49.017,-97.55,isd,hourly,US
CWHU1,40.775,-110.01,madis,subhourly,US
CWIO,56.73,-131.67,isd,hourly,US
CWIY,47.15,-67.817,isd,hourly,US
CWJU,54.25,-133.05,isd,hourly,US
CWKM,69.62,-140.2,isd,hourly,US
CWLW1,46.3,-122.267,madis,subhourly,US
CWLW2,39.446,-80.869,madis,subhourly,US
CWNB,41.833,-82.467,isd,hourly,US
CWNC1,33.351,-118.352,madis,subhourly,US
CWNK1,37.737,-97.489,madis,subhourly,US
CWNL,45.633,-82.967,isd,hourly,US
CWOC1,34.975,-119.896,madis,subhourly,US
CWOE,49.117,-110.467,isd,hourly,US
CWOI,69.15,-140.15,isd,hourly,US
CWOL1,30.297,-93.118,madis,subhourly,US
CWON7,35.305,-80.945,madis,subhourly,US
CWPO,49.183,-98.9,isd,hourly,US
CWPS,42.567,-80.05,isd,hourly,US
CWQS,53.3,-132.767,isd,hourly,US
CWRC1,34.225,-118.617,madis,subhourly,US
CWRC2,38.939,-104.741,madis,subhourly,US
CWRN5,36.977,-107.629,madis,subhourly,US
CWRNV,40.72,-116.011,madis,subhourly,US
CWRO,54.15,-131.65,isd,hourly,US
CWRT2,33.458,-101.084,madis,subhourly,US
CWSC1,43.565,-116.209,madis,subhourly,US
CWSN2,36.045,-114.958,madis,subhourly,US
CWSS,45.217,-67.25,isd,hourly,US
CWSU,49.017,-95.6,isd,hourly,US
CWTT2,29.957,-95.678,madis,subhourly,US
CWVN,49.067,-107.583,isd,hourly,US
CWWK,49.017,-122.767,isd,hourly,US
CWXW1,47.409,-121.723,madis,subhourly,US
CWYN3,43.981,-71.141,madis,subhourly,US
CWYO2,36.104,-94.783,madis,subhourly,US
CWZR,68.8,-140.85,madis,subhourly,US
CXCA2,61.521,-144.198,madis,subhourly,US
CXCC1,37.496,-122.329,madis,subhourly,US
CXCT2,30.493,-98.965,madis,subhourly,US
CXGM,44.71,-66.8,madis,subhourly,US
CXPT,41.933,-82.517,isd,hourly,US
CXPT2,32.133,-99.164,madis,subhourly,US
CXSC1,38.693,-120.002,madis,subhourly,US
CXST2,34.457,-100.199,madis,subhourly,US
CXX ,44.517,-73.167,isd,hourly,US
CXXC1,35.118,-119.596,madis,subhourly,US
CYAC1,34.935,-119.61,madis,subhourly,US
CYAJ,69.583,-140.183,isd,hourly,US
CYAM,46.485,-84.509,isd,hourly,US
CYAT2,31.277,-103.067,madis,subhourly,US
CYCK1,39.356,-97.126,madis,subhourly,US
CYCK2,37.865,-83.934,madis,subhourly,US
CYCT2,30.384,-98.19,madis,subhourly,US
CYDC1,32.989,-116.587,madis,subhourly,US
CYDO2,34.629,-95.351,madis,subhourly,US
CYET2,30.283,-98.239,madis,subhourly,US
CYFI1,42.986,-113.177,madis,subhourly,US
CYFM8,48.877,-114.509,madis,subhourly,US
CYFW1,45.929,-122.203,madis,subhourly,US
CYHT2,30.421,-98.16,madis,subhourly,US
CYLA,54.25,-133.05,isd,hourly,US
CYNC2,38.017,-105.118,madis,subhourly,US
CYNK2,38.391,-84.303,madis,subhourly,US
CYNS2,44.053,-103.311,madis,subhourly,US
CYOC,67.571,-139.839,isd,hourly,US
CYQK,49.783,-94.367,isd,hourly,US
CYRC1,33.81,-118.077,madis,subhourly,US
CYRT2,30.016,-95.697,madis,subhourly,US
CYSM6,31.95,-90.381,madis,subhourly,US
CYVC1,39.988,-120.478,madis,subhourly,US
CYVK1,37.706,-95.906,madis,subhourly,US
CYVN2,39.584,-117.944,madis,subhourly,US
CYXQ,62.417,-140.867,isd,hourly,US
CYXX,49.025,-122.363,isd,hourly,US
CZCC1,38.61,-123.22,madis,subhourly,US
CZCT2,30.643,-98.943,madis,subhourly,US
CZFO3,42.638,-120.949,madis,subhourly,US
CZMT,54.03,-132.13,isd,hourly,US
CZOA2,62.565,-144.665,madis,subhourly,US
CZOC,67.567,-139.833,isd,hourly,US
CZSC2,38.163,-106.599,madis,subhourly,US
CZSO1,40.235,-83.045,madis,subhourly,US
CZZN5,33.647,-105.894,madis,subhourly,US
D0010,34.66,-86.663,madis,subhourly,US
D0015,37.331,-77.337,madis,subhourly,US
D0019,40.854,-81.509,madis,subhourly,US
D0026,39.625,-119.69,madis,subhourly,US
D0031,40.034,-75.222,madis,subhourly,US
D0033,42.328,-71.634,madis,subhourly,US
D0048,43.709,-116.381,madis,subhourly,US
D0056,42.378,-71.146,madis,subhourly,US
D0060,42.259,-79.485,madis,subhourly,US
D0069,45.981,-118.402,madis,subhourly,US
D0076,34.655,-86.674,madis,subhourly,US
D0089,44.567,-71.925,madis,subhourly,US
D0107,26.08,-80.279,madis,subhourly,US
D0108,32.703,-97.467,madis,subhourly,US
D0109,39.449,-77.759,madis,subhourly,US
D0110,43.112,-77.414,madis,subhourly,US
D0117,36.448,-118.9,madis,subhourly,US
D0121,34.654,-86.666,madis,subhourly,US
D0126,46.856,-122.852,madis,subhourly,US
D0140,38.775,-121.215,madis,subhourly,US
D0148,35.685,-84.706,madis,subhourly,US
D0150,34.649,-86.678,madis,subhourly,US
D0151,48.783,-117.288,madis,subhourly,US
D0160,44.751,-122.935,madis,subhourly,US
D0161,41.167,-87.831,madis,subhourly,US
D0162,33.775,-118.37,madis,subhourly,US
D0186,37.336,-122.058,madis,subhourly,US
D0187,34.648,-86.667,madis,subhourly,US
D0207,36.36,-105.568,madis,subhourly,US
D0208,33.579,-117.196,madis,subhourly,US
D0209,39.381,-82.855,madis,subhourly,US
D0217,48.925,-109.622,madis,subhourly,US
D0226,38.283,-76.773,madis,subhourly,US
D0227,46.654,-68.006,madis,subhourly,US
D0229,37.707,-92.985,madis,subhourly,US
D0231,40.666,-111.811,madis,subhourly,US
D0249,47.113,-122.773,madis,subhourly,US
D0251,39.186,-86.778,madis,subhourly,US
D0255,34.643,-86.68,madis,subhourly,US
D0259,30.24,-93.18,madis,subhourly,US
D0262,30.983,-88.418,madis,subhourly,US
D0268,36.366,-89.935,madis,subhourly,US
D0271,26.141,-80.128,madis,subhourly,US
D0275,26.612,-80.185,madis,subhourly,US
D0278,35.257,-83.689,madis,subhourly,US
D0282,38.398,-76.662,madis,subhourly,US
D0285,43.193,-99.653,madis,subhourly,US
D0302,35.471,-97.226,madis,subhourly,US
D0304,39.666,-77.394,madis,subhourly,US
D0310,45.553,-120.165,madis,subhourly,US
D0314,39.213,-96.054,madis,subhourly,US
D0323,33.504,-80.986,madis,subhourly,US
D0325,34.643,-86.671,madis,subhourly,US
D0326,29.746,-95.446,madis,subhourly,US
D0328,34.4,-118.9,madis,subhourly,US
D0332,43.572,-70.219,madis,subhourly,US
D0345,34.243,-118.592,madis,subhourly,US
D0348,44.623,-75.189,madis,subhourly,US
D0358,29.346,-90.629,madis,subhourly,US
D0359,38.94,-92.361,madis,subhourly,US
D0360,33.019,-96.669,madis,subhourly,US
D0361,33.858,-98.493,madis,subhourly,US
D0367,38.596,-90.627,madis,subhourly,US
D0368,47.763,-122.249,madis,subhourly,US
D0372,47.735,-121.971,madis,subhourly,US
D0373,44.818,-70.15,madis,subhourly,US
D0383,44.45,-72.925,madis,subhourly,US
D0389,43.31,-95.785,madis,subhourly,US
D0391,37.324,-119.651,madis,subhourly,US
D0392,34.638,-86.665,madis,subhourly,US
D0394,34.041,-117.172,madis,subhourly,US
D0395,33.199,-117.387,madis,subhourly,US
D0398,40.811,-80.003,madis,subhourly,US
D0407,39.484,-77.33,madis,subhourly,US
D0413,43.478,-110.76,madis,subhourly,US
D0414,43.842,-110.508,madis,subhourly,US
D0416,43.433,-110.781,madis,subhourly,US
D0417,40.055,-105.209,madis,subhourly,US
D0433,42.813,-83.797,madis,subhourly,US
D0455,32.831,-97.501,madis,subhourly,US
D0457,41.527,-71.189,madis,subhourly,US
D0461,28.248,-80.693,madis,subhourly,US
D0462,45.91,-119.342,madis,subhourly,US
D0465,44.159,-108.872,madis,subhourly,US
D0479,25.468,-80.519,madis,subhourly,US
D0486,40.688,-73.993,madis,subhourly,US
D0488,34.632,-86.657,madis,subhourly,US
D0490,33.878,-117.722,madis,subhourly,US
D0491,32.621,-97.396,madis,subhourly,US
D0495,43.487,-112.027,madis,subhourly,US
D0496,43.586,-70.428,madis,subhourly,US
D0501,39.133,-76.843,madis,subhourly,US
D0504,46.382,-120.315,madis,subhourly,US
D0517,34.629,-86.666,madis,subhourly,US
D0520,39.781,-76.015,madis,subhourly,US
D0523,44.891,-86.006,madis,subhourly,US
D0540,43.639,-70.226,madis,subhourly,US
D0541,34.261,-84.518,madis,subhourly,US
D0542,42.029,-71.827,madis,subhourly,US
D0550,30.296,-89.838,madis,subhourly,US
D0552,42.179,-71.534,madis,subhourly,US
D0553,33.663,-117.83,madis,subhourly,US
D0555,42.893,-71.034,madis,subhourly,US
D0557,34.627,-86.659,madis,subhourly,US
D0558,33.755,-117.783,madis,subhourly,US
D0564,41.401,-72.109,madis,subhourly,US
D0570,46.53,-87.42,madis,subhourly,US
D0600,37.95,-91.705,madis,subhourly,US
D0604,40.667,-111.933,madis,subhourly,US
D0611,40.515,-111.898,madis,subhourly,US
D0617,28.5,-81.7,madis,subhourly,US
D0618,37.524,-122.309,madis,subhourly,US
D0631,46.085,-94.489,madis,subhourly,US
D0639,35.453,-86.444,madis,subhourly,US
D0646,45.615,-122.431,madis,subhourly,US
D0648,44.621,-72.572,madis,subhourly,US
D0653,39.136,-76.614,madis,subhourly,US
D0664,30.633,-96.348,madis,subhourly,US
D0668,26.132,-80.418,madis,subhourly,US
D0677,45.654,-122.531,madis,subhourly,US
D0682,34.942,-118.655,madis,subhourly,US
D0683,27.254,-82.437,madis,subhourly,US
D0687,43.534,-96.82,madis,subhourly,US
D0691,33.636,-111.946,madis,subhourly,US
D0696,30.733,-86.55,madis,subhourly,US
D0697,33.548,-88.167,madis,subhourly,US
D0707,47.004,-124.152,madis,subhourly,US
D0708,30.165,-95.627,madis,subhourly,US
D0713,44.351,-104.804,madis,subhourly,US
D0723,44.339,-89.115,madis,subhourly,US
D0731,40.967,-73.783,madis,subhourly,US
D0735,41.874,-120.158,madis,subhourly,US
D0742,33.698,-116.385,madis,subhourly,US
D0756,41.542,-74.075,madis,subhourly,US
D0775,43.186,-84.705,madis,subhourly,US
D0777,35.241,-88.217,madis,subhourly,US
D0783,42.738,-84.663,madis,subhourly,US
D0784,35.558,-91.631,madis,subhourly,US
D0788,43.391,-73.732,madis,subhourly,US
D0793,40.583,-76.193,madis,subhourly,US
D0798,41.8,-84.043,madis,subhourly,US
D0799,41.828,-83.845,madis,subhourly,US
D0807,47.602,-105.965,madis,subhourly,US
D0809,41.105,-95.945,madis,subhourly,US
D0818,40.684,-111.806,madis,subhourly,US
D0819,39.393,-77.047,madis,subhourly,US
D0826,37.454,-119.646,madis,subhourly,US
D0827,36.238,-90.055,madis,subhourly,US
D0831,36.371,-94.288,madis,subhourly,US
D0835,42.986,-87.879,madis,subhourly,US
D0851,39.035,-77.36,madis,subhourly,US
D0860,37.393,-85.368,madis,subhourly,US
D0866,40.731,-124.205,madis,subhourly,US
D0868,41.683,-70.756,madis,subhourly,US
D0884,48.743,-122.454,madis,subhourly,US
D0890,40.039,-84.137,madis,subhourly,US
D0895,38.587,-89.644,madis,subhourly,US
D0912,34.267,-118.917,madis,subhourly,US
D0915,34.286,-118.88,madis,subhourly,US
D0929,42.08,-72.484,madis,subhourly,US
D0931,33.698,-111.884,madis,subhourly,US
D0935,41.277,-69.962,madis,subhourly,US
D0941,42.015,-71.523,madis,subhourly,US
D0967,39.729,-105.156,madis,subhourly,US
D0974,37.27,-107.008,madis,subhourly,US
D0975,48.744,-111.969,madis,subhourly,US
D0980,43.27,-71.676,madis,subhourly,US
D0987,35.024,-80.853,madis,subhourly,US
D0993,43.571,-109.827,madis,subhourly,US
D1009,33.866,-118.396,madis,subhourly,US
D1011,40.132,-105.227,madis,subhourly,US
D1017,41.081,-73.87,madis,subhourly,US
D1021,33.193,-116.279,madis,subhourly,US
D1028,45.38,-120.463,madis,subhourly,US
D1030,39.932,-79.951,madis,subhourly,US
D1031,43.21,-82.978,madis,subhourly,US
D1032,43.321,-83.081,madis,subhourly,US
D1035,41.848,-72.345,madis,subhourly,US
D1038,36.914,-104.435,madis,subhourly,US
D1039,39.393,-84.477,madis,subhourly,US
D1045,43.4,-85.8,madis,subhourly,US
D1049,38.832,-86.801,madis,subhourly,US
D1051,42.048,-91.574,madis,subhourly,US
D1057,35.124,-85.367,madis,subhourly,US
D1072,42.218,-76.42,madis,subhourly,US
D1084,39.8,-75.829,madis,subhourly,US
D1085,36.954,-92.663,madis,subhourly,US
D1086,40.923,-73.33,madis,subhourly,US
D1087,44.986,-105.191,madis,subhourly,US
D1088,40.353,-104.87,madis,subhourly,US
D1103,29.699,-90.571,madis,subhourly,US
D1105,40.881,-74.463,madis,subhourly,US
D1110,41.353,-93.561,madis,subhourly,US
D1114,39.695,-84.146,madis,subhourly,US
D1118,31.746,-105.856,madis,subhourly,US
D1121,35.091,-84.047,madis,subhourly,US
D1123,31.681,-90.782,madis,subhourly,US
D1129,42.323,-73.524,madis,subhourly,US
D1133,42.747,-71.541,madis,subhourly,US
D1142,35.172,-106.984,madis,subhourly,US
D1145,41.036,-73.672,madis,subhourly,US
D1146,44.083,-73.272,madis,subhourly,US
D1147,44.721,-67.404,madis,subhourly,US
D1154,30.624,-88.187,madis,subhourly,US
D1155,37.826,-120.734,madis,subhourly,US
D1157,26.248,-98.488,madis,subhourly,US
D1159,39.65,-106.62,madis,subhourly,US
D1167,40.948,-73.73,madis,subhourly,US
D1174,41.607,-81.331,madis,subhourly,US
D1175,33.196,-117.218,madis,subhourly,US
D1176,41.698,-76.028,madis,subhourly,US
D1180,30.522,-97.423,madis,subhourly,US
D1183,29.549,-95.065,madis,subhourly,US
D1188,47.734,-116.839,madis,subhourly,US
D1191,45.534,-91.228,madis,subhourly,US
D1194,44.212,-116.259,madis,subhourly,US
D1222,30.071,-81.649,madis,subhourly,US
D1223,48.174,-114.458,madis,subhourly,US
D1231,33.141,-96.584,madis,subhourly,US
D1232,29.539,-98.689,madis,subhourly,US
D1234,41.167,-95.95,madis,subhourly,US
D1247,28.25,-80.695,madis,subhourly,US
D1249,28.609,-81.124,madis,subhourly,US
D1253,42.655,-78.703,madis,subhourly,US
D1254,31.717,-109.879,madis,subhourly,US
D1256,40.626,-87.694,madis,subhourly,US
D1257,27.308,-82.531,madis,subhourly,US
D1261,39.699,-105.108,madis,subhourly,US
D1265,44.637,-124.053,madis,subhourly,US
D1274,30.295,-81.867,madis,subhourly,US
D1283,42.526,-71.35,madis,subhourly,US
D1289,38.156,-85.863,madis,subhourly,US
D1295,35.862,-94.249,madis,subhourly,US
D1297,36.851,-119.631,madis,subhourly,US
D1304,41.296,-73.147,madis,subhourly,US
D1305,41.276,-69.964,madis,subhourly,US
D1306,40.243,-75.028,madis,subhourly,US
D1308,40.9,-73.3,madis,subhourly,US
D1321,41.455,-106.806,madis,subhourly,US
D1323,41.232,-121.218,madis,subhourly,US
D1326,43.715,-106.633,madis,subhourly,US
D1328,39.075,-93.717,madis,subhourly,US
D1334,42.542,-71.186,madis,subhourly,US
D1338,35.886,-76.733,madis,subhourly,US
D1347,39.588,-105.347,madis,subhourly,US
D1352,40.72,-99.076,madis,subhourly,US
D1354,38.895,-77.67,madis,subhourly,US
D1369,39.1,-77.7,madis,subhourly,US
D1372,34.521,-114.28,madis,subhourly,US
D1373,47.353,-122.588,madis,subhourly,US
D1375,33.237,-87.687,madis,subhourly,US
D1376,38.523,-89.11,madis,subhourly,US
D1377,36.684,-76.268,madis,subhourly,US
D1379,34.476,-112.448,madis,subhourly,US
D1382,40.047,-75.692,madis,subhourly,US
D1387,43.195,-83.077,madis,subhourly,US
D1388,32.359,-111.112,madis,subhourly,US
D1389,29.99,-91.772,madis,subhourly,US
D1394,36.957,-76.596,madis,subhourly,US
D1415,40.773,-74.141,madis,subhourly,US
D1426,30.176,-92.047,madis,subhourly,US
D1427,43.891,-69.818,madis,subhourly,US
D1439,43.942,-123.217,madis,subhourly,US
D1450,36.711,-76.195,madis,subhourly,US
D1453,64.446,-146.896,madis,subhourly,US
D1454,64.894,-147.876,madis,subhourly,US
D1458,30.404,-87.67,madis,subhourly,US
D1474,47.772,-122.322,madis,subhourly,US
D1482,45.454,-98.457,madis,subhourly,US
D1489,43.516,-110.842,madis,subhourly,US
D1490,35.179,-106.555,madis,subhourly,US
D1496,28.934,-82.462,madis,subhourly,US
D1498,44.862,-93.322,madis,subhourly,US
D1500,36.155,-85.539,madis,subhourly,US
D1541,47.723,-121.92,madis,subhourly,US
D1544,29.98,-95.534,madis,subhourly,US
D1546,39.225,-76.867,madis,subhourly,US
D1556,43.648,-72.455,madis,subhourly,US
D1564,39.556,-105.371,madis,subhourly,US
D1574,40.797,-73.313,madis,subhourly,US
D1582,26.916,-80.131,madis,subhourly,US
D1590,39.138,-76.861,madis,subhourly,US
D1593,36.888,-89.596,madis,subhourly,US
D1595,34.098,-117.759,madis,subhourly,US
D1597,45.945,-117.45,madis,subhourly,US
D1601,42.589,-83.903,madis,subhourly,US
D1607,44.5,-67.9,madis,subhourly,US
D1622,47.107,-124.178,madis,subhourly,US
D1628,43.32,-123.06,madis,subhourly,US
D1630,29.931,-97.297,madis,subhourly,US
D1631,42.825,-96.194,madis,subhourly,US
D1637,32.384,-93.721,madis,subhourly,US
D1641,35.556,-82.304,madis,subhourly,US
D1653,40.088,-74.052,madis,subhourly,US
D1664,34.035,-118.825,madis,subhourly,US
D1684,41.31,-85.723,madis,subhourly,US
D1685,36.222,-121.76,madis,subhourly,US
D1688,42.917,-85.64,madis,subhourly,US
D1693,47.897,-122.177,madis,subhourly,US
D1695,46.525,-124.055,madis,subhourly,US
D1706,30.231,-89.79,madis,subhourly,US
D1715,30.83,-98.358,madis,subhourly,US
D1734,44.111,-70.209,madis,subhourly,US
D1735,47.436,-122.339,madis,subhourly,US
D1736,37.682,-76.621,madis,subhourly,US
D1755,37.736,-87.07,madis,subhourly,US
D1756,35.662,-88.41,madis,subhourly,US
D1760,38.906,-94.798,madis,subhourly,US
D1762,36.767,-92.268,madis,subhourly,US
D1770,42.958,-71.458,madis,subhourly,US
D1774,29.599,-95.106,madis,subhourly,US
D1779,37.661,-91.553,madis,subhourly,US
D17KX,67.699,-163.083,madis,subhourly,US
D1806,42.995,-78.752,madis,subhourly,US
D1811,41.084,-122.722,madis,subhourly,US
D1814,42.166,-88.146,madis,subhourly,US
D1815,36.835,-76.18,madis,subhourly,US
D1818,40.601,-77.402,madis,subhourly,US
D1824,29.803,-96.121,madis,subhourly,US
D1827,39.09,-108.105,madis,subhourly,US
D1830,45.652,-122.524,madis,subhourly,US
D1837,35.427,-81.218,madis,subhourly,US
D1843,41.489,-74.026,madis,subhourly,US
D1850,30.47,-97.865,madis,subhourly,US
D1865,35.911,-81.529,madis,subhourly,US
D1866,41.778,-87.743,madis,subhourly,US
D1869,36.083,-78.587,madis,subhourly,US
D1871,34.236,-117.659,madis,subhourly,US
D1878,47.404,-93.623,madis,subhourly,US
D1879,44.578,-116.624,madis,subhourly,US
D1880,43.192,-89.223,madis,subhourly,US
D1886,39.461,-84.306,madis,subhourly,US
D1898,33.035,-96.69,madis,subhourly,US
D1901,40.983,-74.036,madis,subhourly,US
D1905,33.901,-84.333,madis,subhourly,US
D1918,39.277,-94.337,madis,subhourly,US
D1920,43.837,-69.506,madis,subhourly,US
D1932,30.171,-95.855,madis,subhourly,US
D1934,36.419,-94.461,madis,subhourly,US
D1938,41.866,-88.128,madis,subhourly,US
D1941,34.191,-118.956,madis,subhourly,US
D1952,37.412,-83.425,madis,subhourly,US
D1955,41.017,-72.468,madis,subhourly,US
D1967,37.437,-122.152,madis,subhourly,US
D1970,38.382,-123.069,madis,subhourly,US
D1971,35.163,-82.458,madis,subhourly,US
D1973,41.766,-88.059,madis,subhourly,US
D1978,37.348,-122.073,madis,subhourly,US
D1980,41.13,-73.708,madis,subhourly,US
D1996,26.094,-97.286,madis,subhourly,US
D1997,39.583,-78.599,madis,subhourly,US
D1998,37.566,-76.8,madis,subhourly,US
D2000,40.378,-120.597,madis,subhourly,US
D2004,33.173,-97.054,madis,subhourly,US
D2019,41.868,-89.509,madis,subhourly,US
D2020,42.646,-86.226,madis,subhourly,US
D2021,41.124,-74.594,madis,subhourly,US
D2028,29.899,-90.342,madis,subhourly,US
D2030,38.957,-76.308,madis,subhourly,US
D2031,38.871,-77.198,madis,subhourly,US
D2034,40.878,-74.004,madis,subhourly,US
D2035,37.42,-77.678,madis,subhourly,US
D2047,30.736,-97.734,madis,subhourly,US
D2048,36.02,-79.844,madis,subhourly,US
D2050,45.415,-122.801,madis,subhourly,US
D2052,42.226,-88.233,madis,subhourly,US
D2053,35.919,-84.124,madis,subhourly,US
D2056,42.851,-78.75,madis,subhourly,US
D2058,45.354,-122.842,madis,subhourly,US
D2059,37.538,-122.507,madis,subhourly,US
D2064,41.23,-110.369,madis,subhourly,US
D2066,60.578,-151.312,madis,subhourly,US
D2070,34.231,-119.03,madis,subhourly,US
D2073,34.536,-92.765,madis,subhourly,US
D2074,41.219,-75.908,madis,subhourly,US
D2080,29.503,-94.948,madis,subhourly,US
D2099,30.11,-97.565,madis,subhourly,US
D20KX,68.713,-156.613,madis,subhourly,US
D2104,39.967,-74.36,madis,subhourly,US
D2109,37.578,-97.403,madis,subhourly,US
D2111,40.334,-83.313,madis,subhourly,US
D2113,35.237,-98.499,madis,subhourly,US
D2128,37.255,-121.905,madis,subhourly,US
D2130,32.021,-80.847,madis,subhourly,US
D2144,38.613,-122.828,madis,subhourly,US
D2149,37.328,-119.553,madis,subhourly,US
D2150,29.526,-95.049,madis,subhourly,US
D2169,32.917,-96.626,madis,subhourly,US
D2174,59.742,-151.251,madis,subhourly,US
D2176,41.077,-75.954,madis,subhourly,US
D2180,40.744,-74.82,madis,subhourly,US
D2182,44.046,-94.416,madis,subhourly,US
D2185,36.464,-93.823,madis,subhourly,US
D2187,43.426,-83.953,madis,subhourly,US
D2196,32.291,-110.771,madis,subhourly,US
D2199,43.592,-73.639,madis,subhourly,US
D2214,33.318,-111.934,madis,subhourly,US
D2217,43.933,-70.615,madis,subhourly,US
D2221,40.74,-75.311,madis,subhourly,US
D2223,29.621,-97.868,madis,subhourly,US
D2224,36.141,-115.338,madis,subhourly,US
D2227,41.424,-90.545,madis,subhourly,US
D2228,41.454,-93.799,madis,subhourly,US
D2229,30.245,-87.718,madis,subhourly,US
D2246,40.81,-124.16,madis,subhourly,US
D2257,42.469,-70.909,madis,subhourly,US
D2258,44.336,-68.062,madis,subhourly,US
D2262,38.221,-100.976,madis,subhourly,US
D2267,30.082,-81.413,madis,subhourly,US
D2270,30.207,-95.538,madis,subhourly,US
D2272,39.526,-77.5,madis,subhourly,US
D2273,36.302,-81.041,madis,subhourly,US
D2274,39.553,-76.424,madis,subhourly,US
D2275,36.664,-83.665,madis,subhourly,US
D2282,36.393,-92.301,madis,subhourly,US
D22KX,68.88,-152.682,madis,subhourly,US
D2319,39.236,-121.005,madis,subhourly,US
D2323,40.989,-81.579,madis,subhourly,US
D2336,38.806,-121.193,madis,subhourly,US
D2361,36.739,-81.188,madis,subhourly,US
D2363,34.075,-118.627,madis,subhourly,US
D2370,33.063,-117.289,madis,subhourly,US
D2375,37.61,-77.488,madis,subhourly,US
D2393,34.44,-119.895,madis,subhourly,US
D23KX,68.966,-150.681,madis,subhourly,US
D2400,40.673,-111.782,madis,subhourly,US
D2405,45.264,-123.953,madis,subhourly,US
D2408,37.972,-122.3,madis,subhourly,US
D2409,35.101,-87.349,madis,subhourly,US
D2416,44.004,-73.172,madis,subhourly,US
D2422,35.225,-93.253,madis,subhourly,US
D2427,30.833,-83.981,madis,subhourly,US
D2428,41.457,-72.667,madis,subhourly,US
D2436,38.484,-86.831,madis,subhourly,US
D2444,41.812,-73.098,madis,subhourly,US
D2447,32.982,-80.183,madis,subhourly,US
D2453,35.138,-106.524,madis,subhourly,US
D2455,36.25,-81.115,madis,subhourly,US
D2458,37.335,-121.979,madis,subhourly,US
D2463,36.853,-81.474,madis,subhourly,US
D2465,44.936,-93.683,madis,subhourly,US
D2468,48.879,-122.505,madis,subhourly,US
D2470,47.871,-103.642,madis,subhourly,US
D2485,42.02,-91.131,madis,subhourly,US
D2487,45.575,-93.293,madis,subhourly,US
D2489,43.06,-73.78,madis,subhourly,US
D2494,36.33,-95.295,madis,subhourly,US
D2495,33.229,-111.725,madis,subhourly,US
D24KX,69.153,-148.823,madis,subhourly,US
D2505,38.998,-105.051,madis,subhourly,US
D2509,40.867,-73.317,madis,subhourly,US
D2510,43.888,-69.59,madis,subhourly,US
D2513,43.374,-72.367,madis,subhourly,US
D2537,39.066,-76.705,madis,subhourly,US
D2544,43.265,-73.811,madis,subhourly,US
D2545,45.002,-120.213,madis,subhourly,US
D2550,35.093,-82.971,madis,subhourly,US
D2584,35.682,-105.949,madis,subhourly,US
D2585,33.953,-117.696,madis,subhourly,US
D2589,42.182,-70.771,madis,subhourly,US
D25KX,69.322,-146.375,madis,subhourly,US
D2601,32.728,-95.19,madis,subhourly,US
D2607,47.683,-122.669,madis,subhourly,US
D2610,44.232,-103.776,madis,subhourly,US
D2612,34.901,-92.213,madis,subhourly,US
D2613,38.305,-76.084,madis,subhourly,US
D2616,38.779,-90.574,madis,subhourly,US
D2629,47.936,-122.087,madis,subhourly,US
D2631,44.357,-119.074,madis,subhourly,US
D2633,43.123,-74.147,madis,subhourly,US
D2634,38.421,-121.434,madis,subhourly,US
D2640,37.475,-97.23,madis,subhourly,US
D2659,34.812,-85.001,madis,subhourly,US
D2671,42.143,-71.376,madis,subhourly,US
D2681,42.045,-91.65,madis,subhourly,US
D2684,28.246,-82.441,madis,subhourly,US
D2685,34.964,-80.796,madis,subhourly,US
D2686,30.526,-87.728,madis,subhourly,US
D2690,47.825,-122.14,madis,subhourly,US
D2695,38.71,-123.451,madis,subhourly,US
D2709,28.833,-81.362,madis,subhourly,US
D2713,42.838,-78.657,madis,subhourly,US
D2721,30.46,-90.45,madis,subhourly,US
D2722,30.753,-97.788,madis,subhourly,US
D2728,38.482,-100.966,madis,subhourly,US
D2736,38.711,-120.914,madis,subhourly,US
D2738,39.52,-74.683,madis,subhourly,US
D2740,37.866,-120.171,madis,subhourly,US
D2741,34.435,-86.533,madis,subhourly,US
D2745,43.279,-77.25,madis,subhourly,US
D2751,36.068,-115.049,madis,subhourly,US
D2755,40.168,-105.059,madis,subhourly,US
D2771,37.801,-78.754,madis,subhourly,US
D2778,38.787,-75.154,madis,subhourly,US
D2781,35.638,-97.558,madis,subhourly,US
D2783,41.534,-83.593,madis,subhourly,US
D2786,38.792,-81.355,madis,subhourly,US
D2788,29.913,-97.378,madis,subhourly,US
D2789,45.896,-118.313,madis,subhourly,US
D2797,41.303,-73.916,madis,subhourly,US
D2798,35,-83.2,madis,subhourly,US
D27MX,69.243,-140.965,madis,subhourly,US
D2800,39.268,-111.642,madis,subhourly,US
D2806,42.675,-70.971,madis,subhourly,US
D2812,38.468,-100.73,madis,subhourly,US
D2824,43.507,-83.392,madis,subhourly,US
D2826,48.077,-123.448,madis,subhourly,US
D2830,35.413,-80.27,madis,subhourly,US
D2840,48.143,-122.489,madis,subhourly,US
D2845,37.984,-104.866,madis,subhourly,US
D2848,45.641,-90.34,madis,subhourly,US
D2849,38.389,-122.969,madis,subhourly,US
D2853,39.448,-80.094,madis,subhourly,US
D2868,33.027,-117.118,madis,subhourly,US
D2873,42.494,-92.441,madis,subhourly,US
D2882,39.353,-84.327,madis,subhourly,US
D2887,37.221,-76.954,madis,subhourly,US
D2889,45.384,-122.656,madis,subhourly,US
D2893,33.104,-96.752,madis,subhourly,US
D2901,25.934,-81.714,madis,subhourly,US
D2911,40.255,-101.277,madis,subhourly,US
D2916,46.958,-68.033,madis,subhourly,US
D2917,39.404,-76.934,madis,subhourly,US
D2921,36.09,-83.833,madis,subhourly,US
D2923,47.585,-122.149,madis,subhourly,US
D2932,45.987,-121.537,madis,subhourly,US
D2934,39.878,-104.924,madis,subhourly,US
D2935,43.436,-71.507,madis,subhourly,US
D2938,40.016,-75.818,madis,subhourly,US
D2944,44.22,-74.44,madis,subhourly,US
D2946,40.354,-77.335,madis,subhourly,US
D2956,37.992,-92.098,madis,subhourly,US
D2957,41.59,-113.318,madis,subhourly,US
D2961,36.959,-87.407,madis,subhourly,US
D2963,43.374,-86.424,madis,subhourly,US
D2968,38.967,-77.31,madis,subhourly,US
D2978,37.171,-104.519,madis,subhourly,US
D2988,38.93,-100.397,madis,subhourly,US
D2989,42.494,-107.844,madis,subhourly,US
D2992,42.4,-91.4,madis,subhourly,US
D2994,33.281,-117.025,madis,subhourly,US
D3006,35.665,-90.706,madis,subhourly,US
D3008,47.876,-122.195,madis,subhourly,US
D3015,39.661,-95.006,madis,subhourly,US
D3024,44.994,-84.658,madis,subhourly,US
D3025,40.857,-111.866,madis,subhourly,US
D3044,41.714,-73.828,madis,subhourly,US
D3053,32.287,-106.618,madis,subhourly,US
D3056,40.783,-96.699,madis,subhourly,US
D3057,45.922,-118.378,madis,subhourly,US
D3060,39.015,-84.684,madis,subhourly,US
D3070,28.684,-80.902,madis,subhourly,US
D3072,40.898,-75.313,madis,subhourly,US
D3085,40.757,-96.83,madis,subhourly,US
D3092,42.37,-71.501,madis,subhourly,US
D3094,37.955,-89.114,madis,subhourly,US
D3098,42.683,-91.534,madis,subhourly,US
D3099,43.086,-91.568,madis,subhourly,US
D3101,32.921,-117.253,madis,subhourly,US
D3102,33.592,-83.843,madis,subhourly,US
D3111,30.39,-90.206,madis,subhourly,US
D3118,39.668,-76.085,madis,subhourly,US
D3126,39.955,-86.285,madis,subhourly,US
D3131,41.653,-72.184,madis,subhourly,US
D3135,33.449,-111.649,madis,subhourly,US
D3138,45.022,-119.673,madis,subhourly,US
D3142,41.901,-72.938,madis,subhourly,US
D3145,37.399,-107.568,madis,subhourly,US
D3148,39.604,-77.88,madis,subhourly,US
D3149,39.398,-84.327,madis,subhourly,US
D3150,37.058,-122.036,madis,subhourly,US
D3169,37.832,-122.25,madis,subhourly,US
D3172,33.958,-117.967,madis,subhourly,US
D3193,31.863,-109.064,madis,subhourly,US
D3195,48.195,-106.612,madis,subhourly,US
D3200,46.383,-115.95,madis,subhourly,US
D3201,42.837,-88.386,madis,subhourly,US
D3209,40.499,-105.056,madis,subhourly,US
D3212,42.944,-72.889,madis,subhourly,US
D3216,40.778,-73.92,madis,subhourly,US
D3219,44.839,-108.389,madis,subhourly,US
D3224,48.206,-122.738,madis,subhourly,US
D3225,38.86,-94.682,madis,subhourly,US
D3228,28.769,-81.341,madis,subhourly,US
D3230,34.617,-104.4,madis,subhourly,US
D3235,46.485,-87.716,madis,subhourly,US
D3243,48.845,-122.257,madis,subhourly,US
D3251,35.313,-81.543,madis,subhourly,US
D3253,27.949,-82.466,madis,subhourly,US
D3256,37.488,-79.992,madis,subhourly,US
D3261,43.171,-87.992,madis,subhourly,US
D3263,40.325,-77.121,madis,subhourly,US
D3267,41.246,-111.937,madis,subhourly,US
D3277,46.483,-116.266,madis,subhourly,US
D3279,33.643,-112.14,madis,subhourly,US
D3296,37.927,-122.094,madis,subhourly,US
D3297,39.666,-104.791,madis,subhourly,US
D3298,29.886,-97.347,madis,subhourly,US
D3299,29.989,-97.436,madis,subhourly,US
D32BX,47.136,-97.016,madis,subhourly,US
D3308,41.549,-72.347,madis,subhourly,US
D3310,43.556,-71.35,madis,subhourly,US
D3312,27.177,-80.203,madis,subhourly,US
D3318,44.149,-73.247,madis,subhourly,US
D3319,30.355,-93.275,madis,subhourly,US
D3320,37.449,-76.446,madis,subhourly,US
D3331,40.945,-78.991,madis,subhourly,US
D3347,36.862,-119.712,madis,subhourly,US
D3348,47.179,-123.958,madis,subhourly,US
D3365,43.551,-72.423,madis,subhourly,US
D3370,39.658,-76.947,madis,subhourly,US
D3377,29.979,-95.707,madis,subhourly,US
D3384,35.904,-100.386,madis,subhourly,US
D3385,39.911,-75.598,madis,subhourly,US
D3396,41.592,-90.614,madis,subhourly,US
D3397,32.352,-86.251,madis,subhourly,US
D3403,42.168,-71.53,madis,subhourly,US
D3407,33.576,-84.91,madis,subhourly,US
D3411,26.017,-80.149,madis,subhourly,US
D3414,38.507,-78.624,madis,subhourly,US
D3419,43.745,-69.783,madis,subhourly,US
D3420,34.676,-86.382,madis,subhourly,US
D3422,47.706,-122.194,madis,subhourly,US
D3433,37.189,-76.427,madis,subhourly,US
D3435,36.113,-84.213,madis,subhourly,US
D3439,33.713,-117.764,madis,subhourly,US
D3441,61.521,-149.085,madis,subhourly,US
D3442,38.809,-104.879,madis,subhourly,US
D3449,32.618,-110.789,madis,subhourly,US
D3450,41.239,-95.973,madis,subhourly,US
D3452,40.998,-96.91,madis,subhourly,US
D3471,40.105,-75.177,madis,subhourly,US
D3472,47.646,-122.397,madis,subhourly,US
D3481,38.516,-122.984,madis,subhourly,US
D3485,41.982,-71.661,madis,subhourly,US
D3486,37.016,-93.209,madis,subhourly,US
D3489,38.815,-121.26,madis,subhourly,US
D3492,32.604,-110.754,madis,subhourly,US
D3494,43.275,-75.436,madis,subhourly,US
D3499,37.549,-122.259,madis,subhourly,US
D3500,42.073,-71.268,madis,subhourly,US
D3501,42.213,-75.424,madis,subhourly,US
D3512,44.903,-85.068,madis,subhourly,US
D3513,38.136,-77.58,madis,subhourly,US
D3529,38.928,-104.855,madis,subhourly,US
D3544,38.572,-78.534,madis,subhourly,US
D3546,37.239,-122.044,madis,subhourly,US
D3557,45.484,-122.69,madis,subhourly,US
D3560,37.654,-122.029,madis,subhourly,US
D3588,37.899,-121.723,madis,subhourly,US
D3590,33.748,-117.152,madis,subhourly,US
D3592,39.8,-75.9,madis,subhourly,US
D3605,45.521,-122.161,madis,subhourly,US
D3607,41.605,-80.882,madis,subhourly,US
D3611,30.163,-94.196,madis,subhourly,US
D3617,28.852,-82.587,madis,subhourly,US
D3624,34.159,-118.041,madis,subhourly,US
D3625,48.963,-122.405,madis,subhourly,US
D3632,34.171,-118.043,madis,subhourly,US
D3635,40.24,-75.639,madis,subhourly,US
D3640,32.774,-117.109,madis,subhourly,US
D3642,33.953,-83.857,madis,subhourly,US
D3646,29.737,-98.121,madis,subhourly,US
D3664,45.528,-122.931,madis,subhourly,US
D3665,21.393,-158.149,madis,subhourly,US
D3670,33.847,-117.847,madis,subhourly,US
D3681,40.984,-84.201,madis,subhourly,US
D3693,45.686,-121.566,madis,subhourly,US
D3701,42.818,-73.928,madis,subhourly,US
D3702,47.38,-122.228,madis,subhourly,US
D3706,42.378,-70.972,madis,subhourly,US
D3707,40.872,-105.359,madis,subhourly,US
D3721,33.586,-112.201,madis,subhourly,US
D3723,37.147,-121.638,madis,subhourly,US
D3728,32.633,-96.912,madis,subhourly,US
D3734,30.534,-92.154,madis,subhourly,US
D3738,35.093,-80.826,madis,subhourly,US
D3753,32.918,-97.453,madis,subhourly,US
D3755,31.764,-93.085,madis,subhourly,US
D3757,47.57,-121.9,madis,subhourly,US
D3762,45.492,-122.599,madis,subhourly,US
D3765,29.758,-98.385,madis,subhourly,US
D3766,29.877,-98.445,madis,subhourly,US
D3776,39.412,-76.36,madis,subhourly,US
D3793,45.297,-117.809,madis,subhourly,US
D3794,43.309,-109.193,madis,subhourly,US
D3795,36.581,-79.267,madis,subhourly,US
D3797,32.369,-90.03,madis,subhourly,US
D3798,39.808,-83.958,madis,subhourly,US
D3800,44.915,-92.991,madis,subhourly,US
D3801,33.81,-118.381,madis,subhourly,US
D3807,42.697,-85.399,madis,subhourly,US
D3809,39,-104.801,madis,subhourly,US
D3822,37.13,-122.12,madis,subhourly,US
D3829,42.189,-71.194,madis,subhourly,US
D3835,37.851,-122.155,madis,subhourly,US
D3838,38.417,-122.889,madis,subhourly,US
D3839,39.013,-77.312,madis,subhourly,US
D3842,47.453,-122.372,madis,subhourly,US
D3846,30.813,-86.298,madis,subhourly,US
D3849,33.791,-118.38,madis,subhourly,US
D3853,41.799,-69.94,madis,subhourly,US
D3859,33.16,-97.165,madis,subhourly,US
D3862,39.586,-78.012,madis,subhourly,US
D3868,36.7,-80.7,madis,subhourly,US
D3869,40.007,-86.181,madis,subhourly,US
D3870,39.279,-107.225,madis,subhourly,US
D3882,34.966,-85.25,madis,subhourly,US
D3886,41.731,-93.662,madis,subhourly,US
D3888,36.262,-78.371,madis,subhourly,US
D3895,32.286,-95.182,madis,subhourly,US
D3897,42.979,-73.764,madis,subhourly,US
D3900,36.878,-87.17,madis,subhourly,US
D3918,32.245,-100.458,madis,subhourly,US
D3923,38.663,-75.565,madis,subhourly,US
D3926,30.233,-98.172,madis,subhourly,US
D3929,29.945,-97.536,madis,subhourly,US
D3946,34.635,-84.45,madis,subhourly,US
D3948,44.563,-70.152,madis,subhourly,US
D3949,39.122,-77.21,madis,subhourly,US
D3954,39.614,-79.613,madis,subhourly,US
D3955,35.661,-79.106,madis,subhourly,US
D3973,33.731,-117.433,madis,subhourly,US
D3976,39.429,-119.819,madis,subhourly,US
D3979,34.686,-112.058,madis,subhourly,US
D3982,40.147,-76.586,madis,subhourly,US
D3986,39.224,-78.104,madis,subhourly,US
D3994,37.073,-95.156,madis,subhourly,US
D3998,44.127,-70.087,madis,subhourly,US
D4000,37.026,-121.599,madis,subhourly,US
D4001,34.345,-83.86,madis,subhourly,US
D4008,40.843,-105.329,madis,subhourly,US
D4010,27.801,-80.47,madis,subhourly,US
D4025,28.87,-82.669,madis,subhourly,US
D4026,48.238,-114.317,madis,subhourly,US
D4028,41.913,-71.282,madis,subhourly,US
D4029,30.357,-87.173,madis,subhourly,US
D4042,38.38,-75.131,madis,subhourly,US
D4047,39.457,-77.087,madis,subhourly,US
D4051,40.336,-82.896,madis,subhourly,US
D4057,28.399,-80.793,madis,subhourly,US
D4060,35.744,-120.872,madis,subhourly,US
D4063,41.822,-88.174,madis,subhourly,US
D4064,33.155,-117.163,madis,subhourly,US
D4067,39.827,-75.06,madis,subhourly,US
D4069,39.547,-119.903,madis,subhourly,US
D4070,41.131,-73.549,madis,subhourly,US
D4071,29.875,-92.218,madis,subhourly,US
D4073,41.603,-73.777,madis,subhourly,US
D4075,35.817,-106.218,madis,subhourly,US
D4078,41.335,-81.548,madis,subhourly,US
D4080,42.243,-84.501,madis,subhourly,US
D4088,33.164,-96.685,madis,subhourly,US
D4092,38.863,-77.31,madis,subhourly,US
D4103,40.614,-79.747,madis,subhourly,US
D4111,33.036,-96.748,madis,subhourly,US
D4118,45.391,-122.108,madis,subhourly,US
D4126,32.819,-96.986,madis,subhourly,US
D4127,32.938,-96.668,madis,subhourly,US
D4129,36.138,-79.18,madis,subhourly,US
D4130,45.619,-122.436,madis,subhourly,US
D4132,34.739,-106.275,madis,subhourly,US
D4134,38.524,-123.045,madis,subhourly,US
D4135,30.647,-87.059,madis,subhourly,US
D4139,41.721,-81.349,madis,subhourly,US
D4140,32.811,-116.764,madis,subhourly,US
D4145,35.883,-86.806,madis,subhourly,US
D4148,39.667,-119.711,madis,subhourly,US
D4152,36.041,-79.507,madis,subhourly,US
D4159,40.899,-74.845,madis,subhourly,US
D4161,38.987,-105.291,madis,subhourly,US
D4166,28.484,-81.333,madis,subhourly,US
D4174,33.401,-111.861,madis,subhourly,US
D4178,44.619,-69.778,madis,subhourly,US
D4182,39.259,-105.721,madis,subhourly,US
D4183,35.82,-81.188,madis,subhourly,US
D4184,34.755,-83.649,madis,subhourly,US
D4189,31.946,-105.201,madis,subhourly,US
D41AX,47.061,-88.566,madis,subhourly,US
D4201,37.757,-121.946,madis,subhourly,US
D4207,33.224,-111.663,madis,subhourly,US
D4209,35.22,-106.185,madis,subhourly,US
D4217,40.615,-105.042,madis,subhourly,US
D4219,37.572,-113.711,madis,subhourly,US
D4221,47.523,-92.242,madis,subhourly,US
D4226,27.787,-82.652,madis,subhourly,US
D4230,41.598,-70.832,madis,subhourly,US
D4236,41.472,-74.04,madis,subhourly,US
D4238,30.285,-96.46,madis,subhourly,US
D4246,37.328,-120.452,madis,subhourly,US
D4248,38.68,-90.463,madis,subhourly,US
D4249,48.122,-123.198,madis,subhourly,US
D4260,42.59,-72.606,madis,subhourly,US
D4262,41.101,-84.476,madis,subhourly,US
D4267,33.313,-112.053,madis,subhourly,US
D4271,31.613,-94.177,madis,subhourly,US
D4273,41.048,-82.16,madis,subhourly,US
D4285,42.472,-83.488,madis,subhourly,US
D4294,34.734,-76.748,madis,subhourly,US
D4297,39.584,-106.427,madis,subhourly,US
D4300,38.8,-89,madis,subhourly,US
D4312,34.245,-118.259,madis,subhourly,US
D4321,40.801,-77.871,madis,subhourly,US
D4326,43.682,-72.564,madis,subhourly,US
D4331,32.747,-117.139,madis,subhourly,US
D4332,40.032,-74.241,madis,subhourly,US
D4339,34.297,-118.545,madis,subhourly,US
D4346,35.621,-117.672,madis,subhourly,US
D4348,34.745,-112.063,madis,subhourly,US
D4351,38.224,-89.217,madis,subhourly,US
D4352,34.117,-80.896,madis,subhourly,US
D4353,35.318,-106.483,madis,subhourly,US
D4355,44.648,-124.057,madis,subhourly,US
D4360,45.496,-122.62,madis,subhourly,US
D4366,40.771,-105.476,madis,subhourly,US
D4368,38.82,-104.841,madis,subhourly,US
D4369,40.122,-88.859,madis,subhourly,US
D4375,36.125,-76.451,madis,subhourly,US
D4377,41.22,-81.348,madis,subhourly,US
D4379,39.501,-87.4,madis,subhourly,US
D4380,33.861,-84.089,madis,subhourly,US
D4381,39.844,-105.471,madis,subhourly,US
D4390,34.438,-118.548,madis,subhourly,US
D4391,33.82,-84.567,madis,subhourly,US
D4393,33.703,-84.037,madis,subhourly,US
D4394,35.97,-115.198,madis,subhourly,US
D4408,32.515,-87.839,madis,subhourly,US
D4414,33.062,-117.2,madis,subhourly,US
D4421,32.716,-86.237,madis,subhourly,US
D4427,38.1,-76.669,madis,subhourly,US
D4435,36.523,-76.578,madis,subhourly,US
D4438,33.899,-117.299,madis,subhourly,US
D4441,38.979,-76.994,madis,subhourly,US
D4448,40.064,-105.044,madis,subhourly,US
D4453,45.996,-122.398,madis,subhourly,US
D4454,47.838,-100.933,madis,subhourly,US
D4458,47.49,-92.462,madis,subhourly,US
D4462,35.976,-78.921,madis,subhourly,US
D4464,38.785,-120.622,madis,subhourly,US
D4465,33.827,-118.124,madis,subhourly,US
D4466,39.051,-77.738,madis,subhourly,US
D4490,47.639,-122.237,madis,subhourly,US
D4492,37.717,-122.058,madis,subhourly,US
D4497,44.6,-73.154,madis,subhourly,US
D4505,34.334,-78.701,madis,subhourly,US
D4511,26.106,-80.362,madis,subhourly,US
D4512,39.141,-84.646,madis,subhourly,US
D4513,44.493,-68.458,madis,subhourly,US
D4515,35.56,-113.909,madis,subhourly,US
D4518,43.677,-72.309,madis,subhourly,US
D4521,30.476,-97.572,madis,subhourly,US
D4522,39.905,-104.951,madis,subhourly,US
D4524,38.901,-104.706,madis,subhourly,US
D4531,34.712,-120.47,madis,subhourly,US
D4535,45.893,-123.963,madis,subhourly,US
D4536,32.297,-110.761,madis,subhourly,US
D4539,36.511,-80.954,madis,subhourly,US
D4542,32.006,-85.095,madis,subhourly,US
D4549,40.092,-74.09,madis,subhourly,US
D4552,42.5,-74.8,madis,subhourly,US
D4556,32.477,-97.125,madis,subhourly,US
D4557,36.775,-76.042,madis,subhourly,US
D4566,39.094,-77.203,madis,subhourly,US
D4574,39.003,-84.691,madis,subhourly,US
D4579,32.484,-94.485,madis,subhourly,US
D4589,39.379,-84.185,madis,subhourly,US
D4590,42.376,-71.233,madis,subhourly,US
D4596,44.222,-76.192,madis,subhourly,US
D4599,44.347,-94.201,madis,subhourly,US
D4623,38.433,-122.899,madis,subhourly,US
D4632,38.586,-121.345,madis,subhourly,US
D4635,27.16,-80.334,madis,subhourly,US
D4636,40.599,-79.914,madis,subhourly,US
D4637,36.57,-121.968,madis,subhourly,US
D4640,38.502,-89.91,madis,subhourly,US
D4641,41.203,-73.141,madis,subhourly,US
D4642,42.599,-72.612,madis,subhourly,US
D4650,33.367,-111.72,madis,subhourly,US
D4654,39.757,-101.592,madis,subhourly,US
D4657,42.041,-71.019,madis,subhourly,US
D4669,41.37,-74.28,madis,subhourly,US
D4674,33.993,-118.439,madis,subhourly,US
D4678,41.585,-70.829,madis,subhourly,US
D4679,32.93,-117.092,madis,subhourly,US
D4680,31.457,-110.231,madis,subhourly,US
D4685,48.621,-93.607,madis,subhourly,US
D4688,37.963,-122.301,madis,subhourly,US
D4689,43.697,-114.352,madis,subhourly,US
D4691,30.005,-95.753,madis,subhourly,US
D4694,36.3,-79.6,madis,subhourly,US
D4698,46.295,-118.302,madis,subhourly,US
D4699,38.985,-77.351,madis,subhourly,US
D4700,39.891,-75.071,madis,subhourly,US
D4702,45.472,-122.374,madis,subhourly,US
D4711,29.884,-90.098,madis,subhourly,US
D4712,36.093,-80.411,madis,subhourly,US
D4714,40.962,-75.299,madis,subhourly,US
D4715,29.699,-90.098,madis,subhourly,US
D4717,26.479,-80.119,madis,subhourly,US
D4720,35.604,-78.819,madis,subhourly,US
D4722,43.237,-73.492,madis,subhourly,US
D4738,37.043,-122.024,madis,subhourly,US
D4740,39.111,-104.834,madis,subhourly,US
D4748,38.84,-77.42,madis,subhourly,US
D4754,32.992,-96.859,madis,subhourly,US
D4758,39.603,-86.449,madis,subhourly,US
D4762,36.306,-86.428,madis,subhourly,US
D4764,39.57,-104.946,madis,subhourly,US
D4765,34.239,-108.875,madis,subhourly,US
D4772,48.215,-101.325,madis,subhourly,US
D4776,48.696,-110.98,madis,subhourly,US
D4779,48.335,-110.844,madis,subhourly,US
D4780,41.478,-75.673,madis,subhourly,US
D4784,47.364,-123.156,madis,subhourly,US
D4786,39.404,-104.552,madis,subhourly,US
D4798,33.442,-111.632,madis,subhourly,US
D4800,42.559,-70.874,madis,subhourly,US
D4805,32.64,-97.48,madis,subhourly,US
D4810,45.001,-93.122,madis,subhourly,US
D4813,33.959,-118.128,madis,subhourly,US
D4821,48.736,-110.927,madis,subhourly,US
D4827,47.499,-121.778,madis,subhourly,US
D4835,33.145,-96.781,madis,subhourly,US
D4839,45.452,-122.546,madis,subhourly,US
D4842,33.12,-97.767,madis,subhourly,US
D4847,42.259,-73.132,madis,subhourly,US
D4852,40.488,-86.147,madis,subhourly,US
D4858,42.645,-71.467,madis,subhourly,US
D4859,47.587,-122.384,madis,subhourly,US
D4868,30.401,-95.645,madis,subhourly,US
D4869,45.442,-122.366,madis,subhourly,US
D4879,36.751,-108.197,madis,subhourly,US
D4881,45.534,-122.816,madis,subhourly,US
D4884,36.141,-80.378,madis,subhourly,US
D4885,42.819,-71.082,madis,subhourly,US
D4887,32.904,-97.298,madis,subhourly,US
D4888,26.734,-80.081,madis,subhourly,US
D4891,40.148,-74.249,madis,subhourly,US
D4892,39.435,-104.849,madis,subhourly,US
D4895,41.824,-89.674,madis,subhourly,US
D4900,28.981,-81.269,madis,subhourly,US
D4901,36.042,-95.819,madis,subhourly,US
D4909,34.752,-80.98,madis,subhourly,US
D4912,38.776,-93.941,madis,subhourly,US
D4914,39.136,-86.486,madis,subhourly,US
D4923,38.644,-76.621,madis,subhourly,US
D4930,35.026,-76.825,madis,subhourly,US
D4933,42.091,-75.902,madis,subhourly,US
D4934,37.634,-77.635,madis,subhourly,US
D4935,33.488,-112.067,madis,subhourly,US
D4937,41.466,-82.191,madis,subhourly,US
D4938,40.862,-80.866,madis,subhourly,US
D4942,40.688,-89.797,madis,subhourly,US
D4959,32.419,-111.059,madis,subhourly,US
D4961,35.238,-93.029,madis,subhourly,US
D4965,43.652,-72.137,madis,subhourly,US
D4966,41.811,-71.135,madis,subhourly,US
D4974,36.837,-97.264,madis,subhourly,US
D4988,40.647,-111.979,madis,subhourly,US
D4989,42.736,-99.739,madis,subhourly,US
D4997,44.075,-103.205,madis,subhourly,US
D4999,35.63,-117.701,madis,subhourly,US
D5010,42.998,-88.024,madis,subhourly,US
D5018,38.267,-76.845,madis,subhourly,US
D5019,42.398,-89.004,madis,subhourly,US
D5022,48.646,-122.388,madis,subhourly,US
D5026,40.659,-111.838,madis,subhourly,US
D5033,28.119,-82.597,madis,subhourly,US
D5038,29.748,-95.444,madis,subhourly,US
D5051,41.716,-70.028,madis,subhourly,US
D5057,38.935,-74.965,madis,subhourly,US
D5061,29.73,-95.793,madis,subhourly,US
D5065,43.357,-72.383,madis,subhourly,US
D5071,33.293,-111.766,madis,subhourly,US
D5073,24.742,-80.982,madis,subhourly,US
D5076,45.309,-119.594,madis,subhourly,US
D5078,33.092,-96.728,madis,subhourly,US
D5079,32.955,-117.206,madis,subhourly,US
D5080,42.058,-75.86,madis,subhourly,US
D5082,41.052,-73.853,madis,subhourly,US
D5086,44.071,-88.688,madis,subhourly,US
D5092,44.758,-106.958,madis,subhourly,US
D5106,41.473,-83.285,madis,subhourly,US
D5113,44.997,-108.624,madis,subhourly,US
D5115,37.229,-93.245,madis,subhourly,US
D5116,40.961,-76.584,madis,subhourly,US
D5120,34.036,-118.828,madis,subhourly,US
D5123,37.859,-91.35,madis,subhourly,US
D5128,27.218,-80.244,madis,subhourly,US
D5129,38.525,-81.861,madis,subhourly,US
D5138,38.936,-104.855,madis,subhourly,US
D5141,37.918,-80.236,madis,subhourly,US
D5145,34.097,-118.957,madis,subhourly,US
D5146,40.832,-82.376,madis,subhourly,US
D5150,39.593,-84.246,madis,subhourly,US
D5155,49.382,-94.116,madis,subhourly,US
D5157,43.157,-71.621,madis,subhourly,US
D5160,40.868,-80.279,madis,subhourly,US
D5163,28.844,-81.557,madis,subhourly,US
D5166,28.174,-80.691,madis,subhourly,US
D5167,28.259,-81.642,madis,subhourly,US
D5181,42.589,-70.871,madis,subhourly,US
D5182,40.185,-75.026,madis,subhourly,US
D5195,30.517,-86.447,madis,subhourly,US
D5197,40.909,-97.098,madis,subhourly,US
D5198,32.948,-96.159,madis,subhourly,US
D5199,25.875,-80.125,madis,subhourly,US
D5204,33.17,-96.886,madis,subhourly,US
D5206,29.813,-85.29,madis,subhourly,US
D5207,44.56,-72.007,madis,subhourly,US
D5212,31.586,-92.602,madis,subhourly,US
D5216,38.731,-104.617,madis,subhourly,US
D5217,27.284,-82.528,madis,subhourly,US
D5238,41.952,-75.346,madis,subhourly,US
D5241,41.036,-82.014,madis,subhourly,US
D5242,32.289,-110.894,madis,subhourly,US
D5244,29.811,-104.31,madis,subhourly,US
D5249,30.851,-81.988,madis,subhourly,US
D5254,43.468,-89.726,madis,subhourly,US
D5256,32.766,-117.013,madis,subhourly,US
D5259,28.065,-82.038,madis,subhourly,US
D5262,41.323,-71.81,madis,subhourly,US
D5264,32.922,-96.949,madis,subhourly,US
D5266,38.882,-120.832,madis,subhourly,US
D5272,43.422,-86.358,madis,subhourly,US
D5274,32.396,-99.394,madis,subhourly,US
D5277,29.868,-89.993,madis,subhourly,US
D5288,37.933,-101.522,madis,subhourly,US
D5294,34.302,-86.147,madis,subhourly,US
D5310,45.456,-122.505,madis,subhourly,US
D5312,36.734,-80.442,madis,subhourly,US
D5322,28.929,-82.007,madis,subhourly,US
D5332,44.403,-71.439,madis,subhourly,US
D5335,33.696,-84.588,madis,subhourly,US
D5338,39.988,-105.447,madis,subhourly,US
D5342,35.838,-76.42,madis,subhourly,US
D5349,30.004,-90.048,madis,subhourly,US
D5351,34.524,-86.254,madis,subhourly,US
D5358,39.444,-77.284,madis,subhourly,US
D5360,40.995,-72.441,madis,subhourly,US
D5364,35.845,-80.799,madis,subhourly,US
D5367,38.512,-78.472,madis,subhourly,US
D5375,48.51,-122.833,madis,subhourly,US
D5377,37.078,-76.297,madis,subhourly,US
D5386,46.784,-123.15,madis,subhourly,US
D5391,42.7,-71.019,madis,subhourly,US
D5396,40.646,-111.968,madis,subhourly,US
D5411,33.659,-86.487,madis,subhourly,US
D5416,40.253,-74.729,madis,subhourly,US
D5419,33.866,-84.371,madis,subhourly,US
D5422,37.772,-122.511,madis,subhourly,US
D5425,40.223,-77.014,madis,subhourly,US
D5430,35.31,-106.506,madis,subhourly,US
D5434,45.25,-119.731,madis,subhourly,US
D5435,33.88,-83.568,madis,subhourly,US
D5437,37.176,-94.375,madis,subhourly,US
D5444,45.409,-119.514,madis,subhourly,US
D5451,35.221,-89.525,madis,subhourly,US
D5465,43.497,-71.628,madis,subhourly,US
D5467,32.61,-93.878,madis,subhourly,US
D5468,26.355,-80.245,madis,subhourly,US
D5473,42.258,-89.226,madis,subhourly,US
D5477,40.012,-89.859,madis,subhourly,US
D5478,42.927,-88.834,madis,subhourly,US
D5479,29.323,-98.229,madis,subhourly,US
D5481,40.615,-98.386,madis,subhourly,US
D5486,47.532,-121.878,madis,subhourly,US
D5488,33.17,-96.819,madis,subhourly,US
D5490,42.196,-71.06,madis,subhourly,US
D5497,42.98,-88.035,madis,subhourly,US
D5499,39.319,-94.915,madis,subhourly,US
D5508,40.646,-111.985,madis,subhourly,US
D5513,43.106,-74.772,madis,subhourly,US
D5516,40.576,-74.273,madis,subhourly,US
D5519,41.651,-71.298,madis,subhourly,US
D5527,40.888,-97.35,madis,subhourly,US
D5529,33.643,-112.137,madis,subhourly,US
D5533,44.284,-71.843,madis,subhourly,US
D5536,38.221,-84.817,madis,subhourly,US
D5537,39.49,-84.74,madis,subhourly,US
D5540,30.434,-86.584,madis,subhourly,US
D5544,34.112,-118.628,madis,subhourly,US
D5551,35.016,-106.347,madis,subhourly,US
D5555,42.666,-75.412,madis,subhourly,US
D5556,46.046,-118.388,madis,subhourly,US
D5558,36.728,-76.584,madis,subhourly,US
D5567,25.603,-80.34,madis,subhourly,US
D5570,42.874,-85.874,madis,subhourly,US
D5572,44.352,-68.82,madis,subhourly,US
D5575,29.836,-95.676,madis,subhourly,US
D5586,45.245,-122.435,madis,subhourly,US
D5588,43.586,-84.77,madis,subhourly,US
D5590,44.848,-85.315,madis,subhourly,US
D5595,35.62,-81.416,madis,subhourly,US
D5601,39.912,-85.991,madis,subhourly,US
D5602,32.826,-96.757,madis,subhourly,US
D5612,32.865,-96.797,madis,subhourly,US
D5616,41.475,-81.919,madis,subhourly,US
D5617,36.053,-84.184,madis,subhourly,US
D5624,29.509,-95.047,madis,subhourly,US
D5626,38.302,-105.348,madis,subhourly,US
D5627,27.503,-82.396,madis,subhourly,US
D5628,39.3,-94.906,madis,subhourly,US
D5632,31.528,-94.08,madis,subhourly,US
D5633,32.218,-90.163,madis,subhourly,US
D5640,41.862,-89.517,madis,subhourly,US
D5655,40.083,-75.275,madis,subhourly,US
D5657,39.268,-84.413,madis,subhourly,US
D5662,35.237,-101.997,madis,subhourly,US
D5664,44.908,-84.719,madis,subhourly,US
D5671,37.2,-78.5,madis,subhourly,US
D5673,41.764,-88.052,madis,subhourly,US
D5676,27.868,-82.804,madis,subhourly,US
D5679,34.645,-92.908,madis,subhourly,US
D5683,33.123,-117.228,madis,subhourly,US
D5684,37.391,-93.949,madis,subhourly,US
D5686,35.249,-81.033,madis,subhourly,US
D5690,29.384,-97.984,madis,subhourly,US
D5695,40.568,-75.766,madis,subhourly,US
D5696,35.045,-82.446,madis,subhourly,US
D5697,40.2,-120.3,madis,subhourly,US
D5698,32.292,-110.366,madis,subhourly,US
D5699,32.842,-96.497,madis,subhourly,US
D5704,43.367,-72.076,madis,subhourly,US
D5707,39.723,-76.665,madis,subhourly,US
D5714,42.009,-75.513,madis,subhourly,US
D5719,44.2,-123.2,madis,subhourly,US
D5724,36.168,-82.15,madis,subhourly,US
D5729,40.6,-73.949,madis,subhourly,US
D5731,40.314,-75.873,madis,subhourly,US
D5741,40.1,-105.154,madis,subhourly,US
D5744,40.039,-111.742,madis,subhourly,US
D5746,37.115,-93.367,madis,subhourly,US
D5747,35.698,-82.83,madis,subhourly,US
D5754,37.384,-118.423,madis,subhourly,US
D5756,38.78,-88.895,madis,subhourly,US
D5759,41.954,-74.041,madis,subhourly,US
D5766,40.728,-73.434,madis,subhourly,US
D5775,42.506,-83.46,madis,subhourly,US
D5776,38.95,-77.32,madis,subhourly,US
D5778,41.728,-70.622,madis,subhourly,US
D5779,30.382,-97.347,madis,subhourly,US
D5784,34.791,-87.684,madis,subhourly,US
D5789,42.329,-122.809,madis,subhourly,US
D5790,43.695,-70.9,madis,subhourly,US
D5798,45.188,-93.368,madis,subhourly,US
D5804,35.825,-86.46,madis,subhourly,US
D5805,39.487,-119.849,madis,subhourly,US
D5815,41.981,-91.683,madis,subhourly,US
D5827,34.945,-111.633,madis,subhourly,US
D5828,45.103,-92.262,madis,subhourly,US
D5833,43.212,-71.414,madis,subhourly,US
D5836,46.424,-94.303,madis,subhourly,US
D5846,40.994,-96.154,madis,subhourly,US
D5847,43.039,-77.67,madis,subhourly,US
D5852,35.904,-106.274,madis,subhourly,US
D5856,40.389,-105.048,madis,subhourly,US
D5858,41.558,-96.147,madis,subhourly,US
D5861,31.286,-94.606,madis,subhourly,US
D5864,47.685,-122.52,madis,subhourly,US
D5866,33.922,-86.099,madis,subhourly,US
D5867,41.2,-102.8,madis,subhourly,US
D5868,37.626,-118.981,madis,subhourly,US
D5871,41.665,-92.017,madis,subhourly,US
D5872,40.473,-74.339,madis,subhourly,US
D5883,38.026,-97.664,madis,subhourly,US
D5890,47.675,-105.124,madis,subhourly,US
D5893,47.967,-104.47,madis,subhourly,US
D5894,47.498,-104.252,madis,subhourly,US
D5896,47.522,-111.319,madis,subhourly,US
D5910,32.81,-79.841,madis,subhourly,US
D5911,43.285,-77.128,madis,subhourly,US
D5914,48.552,-122.595,madis,subhourly,US
D5921,29.889,-90.344,madis,subhourly,US
D5924,39.972,-76.81,madis,subhourly,US
D5926,28.173,-82.465,madis,subhourly,US
D5928,43.335,-72.027,madis,subhourly,US
D5935,42.6,-72.7,madis,subhourly,US
D5938,48.145,-104.497,madis,subhourly,US
D5942,33.741,-118.305,madis,subhourly,US
D5948,29.712,-95.753,madis,subhourly,US
D5963,47.947,-104.139,madis,subhourly,US
D5973,40.888,-75.378,madis,subhourly,US
D5974,37.152,-79.679,madis,subhourly,US
D5977,42.871,-78.67,madis,subhourly,US
D5979,44.707,-70.412,madis,subhourly,US
D5981,45.625,-122.408,madis,subhourly,US
D5986,35.353,-80.64,madis,subhourly,US
D5989,34.099,-118.173,madis,subhourly,US
D5993,40.032,-105.286,madis,subhourly,US
D5CS3,57.9,-152,madis,subhourly,US
D5DG7,53,168.9,madis,subhourly,US
D5DY4,28.4,-88,madis,subhourly,US
D5FF5,54.2,-177.1,madis,subhourly,US
D5FM2,47.4,-168.8,madis,subhourly,US
D5HE9,35.6,-131.2,madis,subhourly,US
D5HF3,1,-86.5,madis,subhourly,US
D5HF5,28.5,-119.8,madis,subhourly,US
D5IV9,45.6,160.1,madis,subhourly,US
D5JW6,48.2,-138.3,madis,subhourly,US
D5NF7,49.6,-144,madis,subhourly,US
D5OU2,47.8,170.9,madis,subhourly,US
D5QI5,44.4,148.4,madis,subhourly,US
D6000,44.5,-69.6,madis,subhourly,US
D6002,37.022,-88.335,madis,subhourly,US
D6004,40.922,-74.104,madis,subhourly,US
D6006,45.528,-122.39,madis,subhourly,US
D6011,43.118,-87.943,madis,subhourly,US
D6014,40.28,-112.018,madis,subhourly,US
D6015,38.702,-90.419,madis,subhourly,US
D6016,45.451,-122.605,madis,subhourly,US
D6019,34.231,-114.192,madis,subhourly,US
D6029,32.763,-79.836,madis,subhourly,US
D6033,44.208,-69.061,madis,subhourly,US
D6036,30.153,-93.227,madis,subhourly,US
D6042,43.543,-116.322,madis,subhourly,US
D6044,39.599,-76.466,madis,subhourly,US
D6049,40.784,-73.395,madis,subhourly,US
D6052,45.647,-121.335,madis,subhourly,US
D6055,37.666,-97.394,madis,subhourly,US
D6062,40.89,-82.656,madis,subhourly,US
D6064,39.953,-77.594,madis,subhourly,US
D6068,38.657,-90.397,madis,subhourly,US
D6071,34.824,-92.252,madis,subhourly,US
D6074,46.825,-92.06,madis,subhourly,US
D6083,34.15,-82.082,madis,subhourly,US
D6086,45.057,-94.088,madis,subhourly,US
D6087,34.143,-118.383,madis,subhourly,US
D6090,45.059,-92.852,madis,subhourly,US
D6099,44.6,-123.23,madis,subhourly,US
D6100,44.756,-92.852,madis,subhourly,US
D6102,33.317,-111.949,madis,subhourly,US
D6112,32.387,-111.012,madis,subhourly,US
D6114,37.933,-121.721,madis,subhourly,US
D6117,39.235,-94.58,madis,subhourly,US
D6120,40.552,-111.803,madis,subhourly,US
D6122,36.253,-85.505,madis,subhourly,US
D6123,45.511,-122.794,madis,subhourly,US
D6124,35.275,-81.063,madis,subhourly,US
D6125,40.081,-88.186,madis,subhourly,US
D6126,44.523,-69.197,madis,subhourly,US
D6133,47.643,-122.214,madis,subhourly,US
D6139,42.964,-110.956,madis,subhourly,US
D6140,42.92,-110.996,madis,subhourly,US
D6141,43.03,-111.011,madis,subhourly,US
D6150,41.408,-77.237,madis,subhourly,US
D6152,47.494,-122.14,madis,subhourly,US
D6155,41.385,-72.835,madis,subhourly,US
D6160,38.055,-97.48,madis,subhourly,US
D6162,41.658,-77.673,madis,subhourly,US
D6168,39.574,-105.4,madis,subhourly,US
D6169,26.004,-80.155,madis,subhourly,US
D6178,33.309,-116.849,madis,subhourly,US
D6184,38.715,-120.999,madis,subhourly,US
D6188,47.555,-122.681,madis,subhourly,US
D6193,45.539,-122.244,madis,subhourly,US
D6195,36.469,-93.727,madis,subhourly,US
D6196,30.506,-86.501,madis,subhourly,US
D6197,35.002,-83.88,madis,subhourly,US
D6199,39.14,-77.082,madis,subhourly,US
D6201,44.298,-93.28,madis,subhourly,US
D6208,44.166,-88.771,madis,subhourly,US
D6213,46.546,-94.165,madis,subhourly,US
D6215,34.609,-86.527,madis,subhourly,US
D6218,40.387,-104.773,madis,subhourly,US
D6220,46.731,-117.199,madis,subhourly,US
D6221,39.7,-76.589,madis,subhourly,US
D6222,46.779,-90.79,madis,subhourly,US
D6226,38.153,-107.762,madis,subhourly,US
D6232,46.67,-117.754,madis,subhourly,US
D6237,42.912,-72.217,madis,subhourly,US
D6241,48.122,-122.153,madis,subhourly,US
D6242,47.909,-117.554,madis,subhourly,US
D6246,30.217,-89.823,madis,subhourly,US
D6252,46.812,-90.812,madis,subhourly,US
D6254,46.467,-117.596,madis,subhourly,US
D6258,39.608,-83.713,madis,subhourly,US
D6267,48.074,-120.853,madis,subhourly,US
D6273,41.539,-122.387,madis,subhourly,US
D6276,44.544,-93.571,madis,subhourly,US
D6278,46.032,-118.458,madis,subhourly,US
D6279,38.966,-77.095,madis,subhourly,US
D6282,29.5,-95.1,madis,subhourly,US
D6283,46.73,-116.973,madis,subhourly,US
D6285,34.069,-117.749,madis,subhourly,US
D6289,47.347,-122.03,madis,subhourly,US
D6291,41.065,-80.946,madis,subhourly,US
D6295,35.124,-120.555,madis,subhourly,US
D6297,37.28,-80.083,madis,subhourly,US
D62AX,47.082,-69.05,madis,subhourly,US
D6302,41.036,-74.21,madis,subhourly,US
D6306,39.036,-90.668,madis,subhourly,US
D6314,40.783,-77.873,madis,subhourly,US
D6324,41.4,-96.1,madis,subhourly,US
D6325,42.927,-71.494,madis,subhourly,US
D6334,31.338,-85.36,madis,subhourly,US
D6338,44.213,-71.007,madis,subhourly,US
D6340,39.624,-106.101,madis,subhourly,US
D6341,39.475,-84.459,madis,subhourly,US
D6344,40.164,-83.169,madis,subhourly,US
D6351,37.341,-87.517,madis,subhourly,US
D6352,45.557,-93.209,madis,subhourly,US
D6357,38.661,-90.445,madis,subhourly,US
D6358,36.965,-121.889,madis,subhourly,US
D6359,43.541,-89.113,madis,subhourly,US
D6361,33.107,-96.713,madis,subhourly,US
D6362,41.948,-87.659,madis,subhourly,US
D6368,33.795,-118.095,madis,subhourly,US
D6371,35.099,-106.092,madis,subhourly,US
D6375,40.051,-105.908,madis,subhourly,US
D6378,41.19,-75.782,madis,subhourly,US
D6386,35.865,-84.665,madis,subhourly,US
D6392,35.163,-106.691,madis,subhourly,US
D6393,45.36,-122.791,madis,subhourly,US
D6400,39.3,-104.8,madis,subhourly,US
D6401,38.534,-90.654,madis,subhourly,US
D6413,45.689,-122.646,madis,subhourly,US
D6416,40.475,-83.027,madis,subhourly,US
D6421,42.449,-83.89,madis,subhourly,US
D6428,44.619,-72.016,madis,subhourly,US
D6431,36.573,-93.498,madis,subhourly,US
D6435,38.293,-77.422,madis,subhourly,US
D6436,37.893,-122.28,madis,subhourly,US
D6440,39.947,-75.979,madis,subhourly,US
D6441,38.626,-88.942,madis,subhourly,US
D6447,38.759,-90.737,madis,subhourly,US
D6448,40.886,-85.916,madis,subhourly,US
D6451,46.582,-90.884,madis,subhourly,US
D6452,45.069,-122.54,madis,subhourly,US
D6457,43.922,-116.791,madis,subhourly,US
D6462,36.821,-88.202,madis,subhourly,US
D6465,34.358,-78.704,madis,subhourly,US
D6467,43.941,-116.923,madis,subhourly,US
D6469,43.62,-71.172,madis,subhourly,US
D6471,30.752,-88.404,madis,subhourly,US
D6476,32.648,-80.243,madis,subhourly,US
D6483,37.535,-122.34,madis,subhourly,US
D6485,40.961,-115.593,madis,subhourly,US
D6494,40.431,-111.843,madis,subhourly,US
D6497,38.416,-90.681,madis,subhourly,US
D6507,30.498,-86.487,madis,subhourly,US
D6509,35.278,-111.499,madis,subhourly,US
D6512,33.8,-117.956,madis,subhourly,US
D6513,38.597,-90.315,madis,subhourly,US
D6526,33.962,-84.771,madis,subhourly,US
D6527,40.206,-122.367,madis,subhourly,US
D6536,30.528,-97.783,madis,subhourly,US
D6540,40.17,-105.1,madis,subhourly,US
D6542,32.976,-96.582,madis,subhourly,US
D6554,41.892,-72.143,madis,subhourly,US
D6557,35.252,-75.533,madis,subhourly,US
D6558,40.697,-112.089,madis,subhourly,US
D6561,46.171,-119.176,madis,subhourly,US
D6567,41.492,-73.867,madis,subhourly,US
D6569,36.687,-83.105,madis,subhourly,US
D6570,33.071,-96.788,madis,subhourly,US
D6572,38.54,-121.69,madis,subhourly,US
D6574,42.246,-71.373,madis,subhourly,US
D6575,37.453,-122.194,madis,subhourly,US
D6576,34.75,-106.155,madis,subhourly,US
D6577,41.703,-72.068,madis,subhourly,US
D6579,39.613,-105.127,madis,subhourly,US
D6584,33.891,-81.222,madis,subhourly,US
D6593,42.773,-73.714,madis,subhourly,US
D6598,40.363,-80.167,madis,subhourly,US
D6599,34.154,-97.113,madis,subhourly,US
D6606,41.462,-84.573,madis,subhourly,US
D6609,42.109,-76.072,madis,subhourly,US
D6610,35.274,-89.689,madis,subhourly,US
D6611,27.086,-80.515,madis,subhourly,US
D6614,33.683,-114.217,madis,subhourly,US
D6615,40.57,-75.678,madis,subhourly,US
D6618,45.674,-122.567,madis,subhourly,US
D6619,38.748,-77.459,madis,subhourly,US
D6621,39.873,-75.368,madis,subhourly,US
D6622,40.7,-115.535,madis,subhourly,US
D6626,42.227,-122.719,madis,subhourly,US
D6628,44.561,-95.986,madis,subhourly,US
D6636,35.832,-105.421,madis,subhourly,US
D6637,33.889,-117.816,madis,subhourly,US
D6638,35.464,-80.093,madis,subhourly,US
D6650,32.927,-83.673,madis,subhourly,US
D6653,40.421,-74.561,madis,subhourly,US
D6654,42.789,-71.835,madis,subhourly,US
D6655,47.37,-122.072,madis,subhourly,US
D6656,47.328,-122.04,madis,subhourly,US
D6658,44.55,-92.6,madis,subhourly,US
D6659,45.18,-122.403,madis,subhourly,US
D6664,41.452,-81.815,madis,subhourly,US
D6665,47.552,-122.378,madis,subhourly,US
D6667,46.393,-112.025,madis,subhourly,US
D6670,32.853,-96.759,madis,subhourly,US
D6681,40.335,-83.1,madis,subhourly,US
D6683,42.906,-85.763,madis,subhourly,US
D6693,36.408,-87.013,madis,subhourly,US
D6702,35.745,-78.258,madis,subhourly,US
D6705,29.663,-97.967,madis,subhourly,US
D6707,38.659,-121.775,madis,subhourly,US
D6711,32.223,-95.422,madis,subhourly,US
D6712,37.241,-96.997,madis,subhourly,US
D6720,47.477,-122.124,madis,subhourly,US
D6723,42.824,-70.888,madis,subhourly,US
D6725,43.036,-76.247,madis,subhourly,US
D6733,39.6,-83.973,madis,subhourly,US
D6741,37.826,-80.001,madis,subhourly,US
D6747,39.165,-76.861,madis,subhourly,US
D6748,30.156,-85.762,madis,subhourly,US
D6755,47.162,-121.09,madis,subhourly,US
D6757,29.548,-98.042,madis,subhourly,US
D6758,33.376,-79.184,madis,subhourly,US
D6763,29.867,-95.666,madis,subhourly,US
D6766,42.535,-88.216,madis,subhourly,US
D6767,42.204,-98.749,madis,subhourly,US
D6775,40.68,-78.26,madis,subhourly,US
D6778,31.442,-100.492,madis,subhourly,US
D6780,30.425,-97.862,madis,subhourly,US
D6785,37.937,-122.314,madis,subhourly,US
D6791,31.698,-94.524,madis,subhourly,US
D6794,36.162,-82.688,madis,subhourly,US
D6797,44.196,-72.99,madis,subhourly,US
D6800,34.906,-91.763,madis,subhourly,US
D6802,27.096,-80.207,madis,subhourly,US
D6803,42.194,-122.689,madis,subhourly,US
D6808,32.491,-86.42,madis,subhourly,US
D6810,30.528,-96.707,madis,subhourly,US
D6811,47.622,-122.317,madis,subhourly,US
D6826,32.784,-79.989,madis,subhourly,US
D6827,42.828,-103.009,madis,subhourly,US
D6835,38.708,-121.341,madis,subhourly,US
D6839,42.808,-71.432,madis,subhourly,US
D6841,44.922,-109.243,madis,subhourly,US
D6842,42.472,-124.364,madis,subhourly,US
D6845,39.103,-76.542,madis,subhourly,US
D6846,35.581,-97.728,madis,subhourly,US
D6848,34.953,-89.83,madis,subhourly,US
D6851,41.14,-78.81,madis,subhourly,US
D6862,36.111,-75.748,madis,subhourly,US
D6863,48.572,-122.53,madis,subhourly,US
D6865,47.584,-122.117,madis,subhourly,US
D6866,47.142,-122.329,madis,subhourly,US
D6868,40.867,-80.668,madis,subhourly,US
D6869,26.803,-80.307,madis,subhourly,US
D6873,47.104,-101.445,madis,subhourly,US
D6879,45.199,-117.865,madis,subhourly,US
D6881,40.283,-80.085,madis,subhourly,US
D6885,42.74,-71.983,madis,subhourly,US
D6888,29.875,-90.037,madis,subhourly,US
D6891,47.303,-122.137,madis,subhourly,US
D6894,34.164,-118.267,madis,subhourly,US
D6901,33.862,-118.382,madis,subhourly,US
D6902,39.441,-77.531,madis,subhourly,US
D6903,42.752,-71.057,madis,subhourly,US
D6906,38.3,-79.13,madis,subhourly,US
D6908,38.684,-84.941,madis,subhourly,US
D6912,40.325,-76.884,madis,subhourly,US
D6919,44.324,-72.965,madis,subhourly,US
D6920,41.334,-71.711,madis,subhourly,US
D6922,28.147,-82.548,madis,subhourly,US
D6924,40.285,-76.42,madis,subhourly,US
D6927,34.057,-84.56,madis,subhourly,US
D6928,41.357,-89.468,madis,subhourly,US
D6933,42.523,-85.77,madis,subhourly,US
D6936,48.997,-122.749,madis,subhourly,US
D6937,30.599,-97.783,madis,subhourly,US
D6942,34.9,-120.2,madis,subhourly,US
D6944,42.216,-73.446,madis,subhourly,US
D6946,33.138,-85.33,madis,subhourly,US
D6947,45.023,-93.346,madis,subhourly,US
